latitude;longitude;altitude(m);ultrasonicHeight(m);speed(mps);distance(m);max_altitude(m);max_ascent(m);max_speed(mps);max_distance(m);time(millisecond);datetime(utc);datetime(local);satellites;pressure(Pa);temperature(F);voltage(v);home_latitude;home_longitude;velocityX(mps);velocityY(mps);velocityZ(mps);pitch(deg);roll(deg);yaw(deg);powerlevel;isflying;istakingphoto;remainPowerPercent;remainLifePercent;currentCurrent;currentElectricity;currentVoltage;batteryTemperature;dischargeCount;flightmode;isMotorsOn;isTakingVideo;Rc_elevator;Rc_aileron;Rc_throttle;Rc_rudder;Rc_gyro;timestamp;Battery_Cell1;Battery_Cell2;Battery_Cell3;Battery_Cell4;Battery_Cell5;Battery_Cell6;Dronetype;AppVersion;Planename;FlyControllerSerialNumber;RemoteSerialNumber;BatterySerialNumber;CENTER_BATTERY.productDate;CENTER_BATTERY.serialNo;CENTER_BATTERY.fullCapacity;CENTER_BATTERY.productDateRaw;pitchRaw;rollRaw;yawRaw;gimbalPitchRaw;gimbalRollRaw;gimbalYawRaw;flyState;altitudeRaw;speedRaw;distanceRaw;velocityXRaw;velocityYRaw;velocityZRaw;data_reuse;App_Tip;App_Warning;downlinkSignalQuality;uplinkSignalQuality;transmissionChannel;rcModeSwitch;rcHome;rcPause;rcTransform;rcJoystickMode;appMode;FlyControllerSerialNumber_legacy;RemoteSerialNumber_legacy;BatterySerialNumber_legacy;Battery2SerialNumber;frontAvoidDist;backAvoidDist;isBrakingToAvoid
-29.447897;-53.285895;0.5;0.5;0.2;0.06;0.5;0.5;0.2;0.06;0;43:51.9;43:51.9;11;0;0;16.779;-29.447898;-53.285895;0;0;-0.2;-0.9;-0.6;158.7;0;1;0;85;100;-1799;3175;16779;3105.5;3;P-GPS;1;0;0;0;-660;0;0;1.57618E+12;4196;4198;4182;4192;0;0;28;Litchi_4.17.0-g;Mavic 2 Enterprise;276DF9N001KY48;0VECFAP0072WTK;161AFA8636043H;;0;0;0;9;-6;1587;0;0;1624;6;5;2;0.58;0;0;-2;0;;;100;100;0;2;0;0;0;2;0;;;;null;6.4;0;0
-29.447898;-53.285895;0.5;0.5;0;0.03;0.5;0.5;0.2;0.06;101;43:52.0;43:52.0;11;0;0;16.779;-29.447898;-53.285895;0;0;0;-1.1;-0.4;158.7;0;1;0;85;100;-1799;3175;16779;3105.5;3;P-GPS;1;0;0;0;-614;0;0;1.57618E+12;4196;4198;4182;4192;0;0;28;;;;;;;0;0;0;11;-4;1587;0;0;1624;6;5;0;0.3;0;0;0;0;;;100;100;0;2;0;0;0;2;0;;;;;6.4;0;0
-29.447898;-53.285895;0.5;0.5;0;0.04;0.5;0.5;0.2;0.06;200;43:52.1;43:52.1;11;0;0;16.779;-29.447898;-53.285895;0;0;0;-1.1;-0.3;158.7;0;1;0;85;100;-1799;3175;16779;3105.5;3;P-GPS;1;0;0;0;-62;0;0;1.57618E+12;4196;4198;4182;4192;0;0;28;;;;;;;0;0;0;11;-3;1587;0;0;1624;6;5;0;0.37;0;0;0;0;;;100;100;0;2;0;0;0;2;0;;;;;6.5;0;0
-29.447897;-53.285895;0.5;0.5;0;0.06;0.5;0.5;0.2;0.06;293;43:52.1;43:52.1;11;0;0;16.779;-29.447898;-53.285895;0;0;0;-1.2;-0.2;158.7;0;1;0;85;100;-1799;3175;16779;3105.5;3;P-GPS;1;0;0;0;0;0;0;1.57618E+12;4196;4198;4182;4192;0;0;28;;;;;;;0;0;0;12;-2;1587;0;0;1624;6;5;0;0.59;0;0;0;0;;;100;100;0;2;0;0;0;2;0;;;;;6.5;0;0
-29.447897;-53.285895;0.5;0.5;0.1;0.07;0.5;0.5;0.2;0.07;405;43:52.3;43:52.3;11;0;0;16.779;-29.447898;-53.285895;0;0;0.1;-1.3;-0.3;158.8;0;1;0;85;100;-1799;3175;16779;3105.5;3;P-GPS;1;0;0;0;0;0;0;1.57618E+12;4196;4198;4182;4192;0;0;28;;;;;;;0;0;0;13;-3;1588;0;0;1624;6;5;1;0.66;0;0;1;0;;;100;100;0;2;0;0;0;2;0;;;;;6.5;0;0
-29.447897;-53.285895;0.5;0.5;0.1;0.06;0.5;0.5;0.2;0.07;504;43:52.4;43:52.4;11;0;0;16.779;-29.447898;-53.285895;0;0;0.1;-1.3;-0.3;158.8;0;1;0;85;100;-1799;3175;16779;3105.5;3;P-GPS;1;0;0;0;0;0;0;1.57618E+12;4196;4198;4182;4192;0;0;28;;;;;;;0;0;0;13;-3;1588;0;0;1624;6;5;1;0.63;0;0;1;0;;;100;100;0;2;0;0;0;2;0;;;;;6.5;0;0
-29.447897;-53.285895;0.5;0.5;0;0.07;0.5;0.5;0.2;0.07;609;43:52.5;43:52.5;11;0;0;16.779;-29.447898;-53.285895;0;0;0;-1.2;-0.4;158.8;0;1;0;85;100;-1799;3175;16779;3105.5;3;P-GPS;1;0;0;0;0;0;0;1.57618E+12;4196;4198;4182;4192;0;0;28;;;;;;;0;0;0;12;-4;1588;0;0;1624;6;5;0;0.67;0;0;0;0;;;100;100;0;2;0;0;0;2;0;;;;;6.5;0;0
-29.447897;-53.285895;0.4;0.5;0;0.07;0.5;0.5;0.2;0.07;708;43:52.6;43:52.6;11;0;0;16.779;-29.447898;-53.285895;0;0;0;-1.2;-0.6;158.8;0;1;0;85;100;-1799;3175;16779;3105.5;3;P-GPS;1;0;0;0;0;0;0;1.57618E+12;4196;4198;4182;4192;0;0;28;;;;;;;0;0;0;12;-6;1588;0;0;1624;6;4;0;0.67;0;0;0;0;;;100;100;0;2;0;0;0;2;0;;;;;6.5;0;0
-29.447897;-53.285895;0.4;0.5;0;0.07;0.5;0.5;0.2;0.07;805;43:52.7;43:52.7;11;0;0;16.617;-29.447898;-53.285895;0;0;0;-1;-0.8;158.7;0;1;0;85;100;-7726;3171;16617;3105.5;3;P-GPS;1;0;0;0;0;0;0;1.57618E+12;4196;4198;4182;4192;0;0;28;;;;;;;0;0;0;10;-8;1587;0;0;1624;6;4;0;0.7;0;0;0;0;;;100;100;0;2;0;0;0;2;0;;;;;6.5;0;0
-29.447898;-53.285895;0.4;0.5;0;0.04;0.5;0.5;0.2;0.07;931;43:52.8;43:52.8;12;0;0;16.617;-29.447898;-53.285895;0;0;0;-0.8;-1;158.6;0;1;0;85;100;-7726;3171;16617;3105.5;3;P-GPS;1;0;0;0;0;0;0;1.57618E+12;4196;4198;4182;4192;0;0;28;;;;;;;0;0;0;8;-10;1586;0;0;1624;6;4;0;0.4;0;0;0;0;;;100;100;0;2;0;0;0;2;0;;;;;6.5;0;0
-29.447898;-53.285895;0.4;0.5;0;0.03;0.5;0.5;0.2;0.07;1105;43:53.0;43:53.0;12;0;0;16.617;-29.447898;-53.285895;0;0;0;-0.7;-1;158.4;0;1;0;85;100;-7726;3171;16617;3105.5;3;P-GPS;1;0;0;0;0;0;0;1.57618E+12;4196;4198;4182;4192;0;0;28;;;;;;;0;0;0;7;-10;1584;0;0;1624;6;4;0;0.27;0;0;0;0;;;100;100;0;2;0;0;0;2;0;;;;;6.5;0;0
-29.447898;-53.285895;0.4;0.5;0;0.03;0.5;0.5;0.2;0.07;1203;43:53.1;43:53.1;12;0;0;16.617;-29.447898;-53.285895;0;0;0;-0.7;-0.9;158.3;0;1;0;85;100;-7726;3171;16617;3105.5;3;P-GPS;1;0;0;0;0;0;0;1.57618E+12;4196;4198;4182;4192;0;0;28;;;;;;;0;0;0;7;-9;1583;0;0;1624;6;4;0;0.25;0;0;0;0;;;100;100;0;2;0;0;0;2;0;;;;;6.5;0;0
-29.447898;-53.285895;0.5;0.5;0;0.04;0.5;0.5;0.2;0.07;1299;43:53.2;43:53.2;12;0;0;16.617;-29.447898;-53.285895;0;0;0;-0.6;-0.8;158.3;0;1;0;85;100;-7726;3171;16617;3105.5;3;P-GPS;1;0;0;0;0;0;0;1.57618E+12;4196;4198;4182;4192;0;0;28;;;;;;;0;0;0;6;-8;1583;0;0;1624;6;5;0;0.38;0;0;0;0;;;100;100;0;2;0;0;0;2;0;;;;;6.5;0;0
-29.447898;-53.285895;0.5;0.5;0;0.04;0.5;0.5;0.2;0.07;1411;43:53.3;43:53.3;12;0;0;16.617;-29.447898;-53.285895;0;0;0;-0.6;-0.8;158.3;0;1;0;85;100;-7726;3171;16617;3105.5;3;P-GPS;1;0;0;0;0;0;0;1.57618E+12;4196;4198;4182;4192;0;0;28;;;;;;;0;0;0;6;-8;1583;0;0;1624;6;5;0;0.37;0;0;0;0;;;100;100;0;2;0;0;0;2;0;;;;;6.5;0;0
-29.447898;-53.285895;0.5;0.5;0;0.04;0.5;0.5;0.2;0.07;1502;43:53.4;43:53.4;12;0;0;16.617;-29.447898;-53.285895;0;0;0;-0.7;-0.6;158.4;0;1;0;85;100;-7726;3171;16617;3105.5;3;P-GPS;1;0;0;0;0;0;0;1.57618E+12;4196;4198;4182;4192;0;0;28;;;;;;;0;0;0;7;-6;1584;0;0;1624;6;5;0;0.35;0;0;0;0;;;100;100;0;2;0;0;0;2;0;;;;;6.5;0;0
-29.447898;-53.285895;0.5;0.5;0;0.03;0.5;0.5;0.2;0.07;1603;43:53.5;43:53.5;12;0;0;16.617;-29.447898;-53.285895;0;0;0;-0.7;-0.4;158.5;0;1;0;85;100;-7726;3171;16617;3105.5;3;P-GPS;1;0;0;0;0;0;0;1.57618E+12;4196;4198;4182;4192;0;0;28;;;;;;;0;0;0;7;-4;1585;0;0;1624;6;5;0;0.35;0;0;0;0;;;100;100;0;2;0;0;0;2;0;;;;;6.5;0;0
-29.447898;-53.285895;0.5;0.5;0;0.04;0.5;0.5;0.2;0.07;1705;43:53.6;43:53.6;12;0;0;16.617;-29.447898;-53.285895;0;0;0;-0.8;-0.3;158.5;0;1;0;85;100;-7726;3171;16617;3105.5;3;P-GPS;1;0;0;0;0;0;0;1.57618E+12;4196;4198;4182;4192;0;0;28;;;;;;;0;0;0;8;-3;1585;0;0;1624;6;5;0;0.36;0;0;0;0;;;100;100;0;2;0;0;0;2;0;;;;;6.5;0;0
-29.447898;-53.285895;0.5;0.5;0;0.04;0.5;0.5;0.2;0.07;1794;43:53.6;43:53.6;12;0;0;16.617;-29.447898;-53.285895;0;0;0;-0.9;-0.2;158.5;0;1;0;85;100;-8386;3169;16617;3105.5;3;P-GPS;1;0;0;0;0;0;0;1.57618E+12;4196;4198;4182;4192;0;0;28;;;;;;;0;0;0;9;-2;1585;0;0;1624;6;5;0;0.36;0;0;0;0;;;100;100;0;2;0;0;0;2;0;;;;;6.5;0;0
-29.447898;-53.285896;0.5;0.5;0;0.05;0.5;0.5;0.2;0.07;1906;43:53.8;43:53.8;12;0;0;16.617;-29.447898;-53.285895;0;0;0;-0.9;-0.2;158.5;0;1;0;85;100;-8386;3169;16617;3105.5;3;P-GPS;1;0;0;0;0;0;0;1.57618E+12;4196;4198;4182;4192;0;0;28;;;;;;;0;0;0;9;-2;1585;0;0;1624;6;5;0;0.5;0;0;0;0;;;100;100;0;2;0;0;0;2;0;;;;;6.5;0;0
-29.447898;-53.285896;0.5;0.5;0;0.05;0.5;0.5;0.2;0.07;2002;43:53.9;43:53.9;12;0;0;16.617;-29.447898;-53.285895;0;0;0;-0.9;-0.2;158.5;0;1;0;85;100;-8386;3169;16617;3105.5;3;P-GPS;1;0;0;0;0;0;0;1.57618E+12;4196;4198;4182;4192;0;0;28;;;;;;;0;0;0;9;-2;1585;0;0;1624;6;5;0;0.52;0;0;0;0;;;100;100;0;2;0;0;0;2;0;;;;;6.5;0;0
-29.447898;-53.285896;0.5;0.5;0;0.05;0.5;0.5;0.2;0.07;2092;43:53.9;43:53.9;12;0;0;16.617;-29.447898;-53.285895;0;0;0;-0.9;-0.2;158.5;0;1;0;85;100;-8386;3169;16617;3105.5;3;P-GPS;1;0;0;0;0;0;0;1.57618E+12;4196;4198;4182;4192;0;0;28;;;;;;;0;0;0;9;-2;1585;0;0;1624;6;5;0;0.51;0;0;0;0;;;100;100;0;2;0;0;0;2;0;;;;;6.5;0;0
-29.447898;-53.285896;0.5;0.5;0;0.05;0.5;0.5;0.2;0.07;2192;43:54.0;43:54.0;12;0;0;16.617;-29.447898;-53.285895;0;0;0;-1;-0.2;158.6;0;1;0;85;100;-8386;3169;16617;3105.5;3;P-GPS;1;0;0;0;0;0;0;1.57618E+12;4196;4198;4182;4192;0;0;28;;;;;;;0;0;0;10;-2;1586;0;0;1624;6;5;0;0.53;0;0;0;0;;;100;100;0;2;0;0;0;2;0;;;;;6.5;0;0
-29.447898;-53.285896;0.5;0.5;0;0.07;0.5;0.5;0.2;0.07;2292;43:54.1;43:54.1;13;0;0;16.617;-29.447898;-53.285895;0;0;0;-1;-0.2;158.5;0;1;0;85;100;-8386;3169;16617;3105.5;3;P-GPS;1;0;0;0;0;0;0;1.57618E+12;4196;4198;4182;4192;0;0;28;;;;;;;0;0;0;10;-2;1585;0;0;1624;6;5;0;0.65;0;0;0;0;;;100;100;0;2;0;0;0;2;0;;;;;6.6;0;0
-29.447898;-53.285896;0.5;0.5;0;0.07;0.5;0.5;0.2;0.07;2402;43:54.3;43:54.3;13;0;0;16.617;-29.447898;-53.285895;0;0;0;-1;-0.1;158.6;0;1;0;85;100;-8386;3169;16617;3105.5;3;P-GPS;1;0;0;0;0;0;0;1.57618E+12;4148;4149;4130;4140;0;0;28;;;;;;;0;0;0;10;-1;1586;0;0;1624;6;5;0;0.69;0;0;0;0;;;100;100;0;2;0;0;0;2;0;;;;;6.6;0;0
-29.447898;-53.285896;0.5;0.5;0;0.06;0.5;0.5;0.2;0.07;2510;43:54.4;43:54.4;13;0;0;16.617;-29.447898;-53.285895;0;0;0;-1;0;158.6;0;1;1;85;100;-8386;3169;16617;3105.5;3;P-GPS;1;0;0;0;0;0;0;1.57618E+12;4148;4149;4130;4140;0;0;28;;;;;;;0;0;0;10;0;1586;0;0;1624;6;5;0;0.64;0;0;0;0;;;100;100;0;2;0;0;0;2;0;;;;;6.6;0;0
-29.447898;-53.285896;0.5;0.5;0;0.07;0.5;0.5;0.2;0.07;2605;43:54.5;43:54.5;13;0;0;16.617;-29.447898;-53.285895;0;0;0;-1;0;158.7;0;1;1;85;100;-8386;3169;16617;3105.5;3;P-GPS;1;0;0;0;0;0;0;1.57618E+12;4148;4149;4130;4140;0;0;28;;;;;;;0;0;0;10;0;1587;0;0;1624;6;5;0;0.67;0;0;0;0;;;100;100;0;2;0;0;0;2;0;;;;;6.6;0;0
-29.447898;-53.285896;0.5;0.5;0;0.08;0.5;0.5;0.2;0.08;2701;43:54.6;43:54.6;13;0;0;16.617;-29.447898;-53.285895;0;0;0;-1;0;158.7;0;1;1;85;100;-8386;3169;16617;3105.5;3;P-GPS;1;0;0;0;0;0;0;1.57618E+12;4148;4149;4130;4140;0;0;28;;;;;;;0;0;0;10;0;1587;0;0;1624;6;5;0;0.76;0;0;0;0;;;100;100;0;2;0;0;0;2;0;;;;;6.6;0;0
-29.447898;-53.285896;0.5;0.5;0;0.08;0.5;0.5;0.2;0.08;2797;43:54.7;43:54.7;13;0;0;16.567;-29.447898;-53.285895;0;0;0;-1;0;158.7;0;1;1;85;100;-8386;3169;16567;3105.5;3;P-GPS;1;0;0;0;0;0;0;1.57618E+12;4148;4149;4130;4140;0;0;28;;;;;;;0;0;0;10;0;1587;0;0;1624;6;5;0;0.81;0;0;0;0;;;100;100;0;2;0;0;0;2;0;;;;;6.6;0;0
-29.447898;-53.285896;0.5;0.5;0;0.09;0.5;0.5;0.2;0.09;2909;43:54.8;43:54.8;13;0;0;16.567;-29.447898;-53.285895;0;0;0;-1;0;158.8;0;1;1;85;100;-8386;3169;16567;3105.5;3;P-GPS;1;0;0;0;0;0;0;1.57618E+12;4148;4149;4130;4140;0;0;28;;;;;;;0;0;0;10;0;1588;0;0;1624;6;5;0;0.89;0;0;0;0;;;100;100;0;2;0;0;0;2;0;;;;;6.6;0;0
-29.447898;-53.285896;0.5;0.5;0;0.09;0.5;0.5;0.2;0.09;3005;43:54.9;43:54.9;13;0;0;16.567;-29.447898;-53.285895;0;0;0;-1;0;158.8;0;1;1;85;100;-8386;3169;16567;3105.5;3;P-GPS;1;0;0;0;0;0;0;1.57618E+12;4148;4149;4130;4140;0;0;28;;;;;;;0;0;0;10;0;1588;0;0;1624;6;5;0;0.94;0;0;0;0;;;100;100;0;2;0;0;0;2;0;;;;;6.6;0;0
-29.447898;-53.285896;0.5;0.5;0;0.09;0.5;0.5;0.2;0.09;3101;43:55.0;43:55.0;13;0;0;16.567;-29.447898;-53.285895;0;0;0;-1;0.1;158.9;0;1;0;85;100;-8386;3169;16567;3105.5;3;P-GPS;1;0;0;0;0;0;0;1.57618E+12;4148;4149;4130;4140;0;0;28;;;;;;;0;0;0;10;1;1589;0;0;1624;6;5;0;0.86;0;0;0;0;;;100;100;0;2;0;0;0;2;0;;;;;6.6;0;0
-29.447898;-53.285896;0.5;0.5;0;0.09;0.5;0.5;0.2;0.09;3207;43:55.1;43:55.1;13;0;0;16.567;-29.447898;-53.285895;0;0;0;-1;0.1;158.9;0;1;0;85;100;-8386;3169;16567;3105.5;3;P-GPS;1;0;0;0;0;0;0;1.57618E+12;4148;4149;4130;4140;0;0;28;;;;;;;0;0;0;10;1;1589;0;0;1624;6;5;0;0.91;0;0;0;0;;;100;100;0;2;0;0;0;2;0;;;;;6.6;0;0
-29.447898;-53.285896;0.5;0.5;0;0.1;0.5;0.5;0.2;0.1;3297;43:55.2;43:55.2;13;0;0;16.567;-29.447898;-53.285895;0;0;0;-0.9;0.1;159;0;1;0;85;100;-8386;3169;16567;3105.5;3;P-GPS;1;0;0;0;0;0;0;1.57618E+12;4148;4149;4130;4140;0;0;28;;;;;;;0;0;0;9;1;1590;0;0;1624;6;5;0;0.98;0;0;0;0;;;100;100;0;2;0;0;0;2;0;;;;;6.5;0;0
-29.447898;-53.285896;0.5;0.5;0;0.1;0.5;0.5;0.2;0.1;3403;43:55.3;43:55.3;13;0;0;16.567;-29.447898;-53.285895;0;0;0;-0.9;0;159;0;1;0;85;100;-8386;3169;16567;3105.5;3;P-GPS;1;0;0;0;0;0;0;1.57618E+12;4148;4149;4130;4140;0;0;28;;;;;;;0;0;0;9;0;1590;0;0;1624;6;5;0;1.04;0;0;0;0;;;100;100;0;2;0;0;0;2;0;;;;;6.5;0;0
-29.447898;-53.285896;0.5;0.5;0;0.1;0.5;0.5;0.2;0.1;3492;43:55.3;43:55.3;13;0;0;16.567;-29.447898;-53.285895;0;0;0;-0.9;0.1;159;0;1;0;85;100;-8386;3169;16567;3105.5;3;P-GPS;1;0;0;0;0;0;0;1.57618E+12;4148;4149;4130;4140;0;0;28;;;;;;;0;0;0;9;1;1590;0;0;1624;6;5;0;0.96;0;0;0;0;;;100;100;0;2;0;0;0;2;0;;;;;6.5;0;0
-29.447898;-53.285896;0.5;0.5;0;0.1;0.5;0.5;0.2;0.1;3593;43:55.4;43:55.4;13;0;0;16.567;-29.447898;-53.285895;0;0;0;-0.9;0.1;159;0;1;0;85;100;-8386;3169;16567;3105.5;3;P-GPS;1;0;0;0;0;0;0;1.57618E+12;4148;4149;4130;4140;0;0;28;;;;;;;0;0;0;9;1;1590;0;0;1624;6;5;0;1.01;0;0;0;0;;;100;100;0;2;0;0;0;2;0;;;;;6.5;0;0
-29.447898;-53.285896;0.5;0.5;0;0.09;0.5;0.5;0.2;0.1;3702;43:55.6;43:55.6;12;0;0;16.567;-29.447898;-53.285895;0;0;0;-1;0;159.1;0;1;0;85;100;-8386;3169;16567;3105.5;3;P-GPS;1;0;0;0;0;0;0;1.57618E+12;4148;4149;4130;4140;0;0;28;;;;;;;0;0;0;10;0;1591;0;0;1624;6;5;0;0.95;0;0;0;0;;;100;100;0;2;0;0;0;2;0;;;;;6.5;0;0
-29.447898;-53.285896;0.5;0.5;0;0.1;0.5;0.5;0.2;0.1;3801;43:55.7;43:55.7;12;0;0;16.556;-29.447898;-53.285895;0;0;0;-1;0;159.1;0;1;0;85;100;-8386;3169;16556;3106.5;3;P-GPS;1;0;0;0;0;0;0;1.57618E+12;4148;4149;4130;4140;0;0;28;;;;;;;0;0;0;10;0;1591;0;0;1624;6;5;0;0.99;0;0;0;0;;;100;100;0;2;0;0;0;2;0;;;;;6.5;0;0
-29.447897;-53.285896;0.5;0.5;0;0.09;0.5;0.5;0.2;0.1;3905;43:55.8;43:55.8;12;0;0;16.556;-29.447898;-53.285895;0;0;0;-1;0;159.1;0;1;0;85;100;-8386;3169;16556;3106.5;3;P-GPS;1;0;0;0;0;0;0;1.57618E+12;4148;4149;4130;4140;0;0;28;;;;;;;0;0;0;10;0;1591;0;0;1624;6;5;0;0.89;0;0;0;0;;;100;100;0;2;0;0;0;2;0;;;;;6.5;0;0
-29.447897;-53.285896;0.5;0.5;0;0.09;0.5;0.5;0.2;0.1;3998;43:55.9;43:55.9;12;0;0;16.556;-29.447898;-53.285895;0;0;0;-1;0;159.1;0;1;0;85;100;-8386;3169;16556;3106.5;3;P-GPS;1;0;0;0;0;0;0;1.57618E+12;4148;4149;4130;4140;0;0;28;;;;;;;0;0;0;10;0;1591;0;0;1624;6;5;0;0.92;0;0;0;0;;;100;100;0;2;0;0;0;2;0;;;;;6.5;0;0
-29.447897;-53.285896;0.5;0.5;0;0.08;0.5;0.5;0.2;0.1;4108;43:56.0;43:56.0;11;0;0;16.556;-29.447898;-53.285895;0;0;0;-1;0;159.1;0;1;0;85;100;-8386;3169;16556;3106.5;3;P-GPS;1;0;0;0;0;0;0;1.57618E+12;4148;4149;4130;4140;0;0;28;;;;;;;0;0;0;10;0;1591;0;0;1624;6;5;0;0.75;0;0;0;0;;;100;100;0;2;0;0;0;2;0;;;;;6.6;0;0
-29.447897;-53.285896;0.5;0.5;0;0.08;0.5;0.5;0.2;0.1;4201;43:56.1;43:56.1;11;0;0;16.556;-29.447898;-53.285895;0;0;0;-1;-0.1;159.1;0;1;0;85;100;-8386;3169;16556;3106.5;3;P-GPS;1;0;0;0;0;0;0;1.57618E+12;4148;4149;4130;4140;0;0;28;;;;;;;0;0;0;10;-1;1591;0;0;1624;6;5;0;0.76;0;0;0;0;;;100;100;0;2;0;0;0;2;0;;;;;6.6;0;0
-29.447897;-53.285895;0.5;0.5;0;0.08;0.5;0.5;0.2;0.1;4300;43:56.2;43:56.2;11;0;0;16.556;-29.447898;-53.285895;0;0;0;-1;-0.1;159;0;1;0;85;100;-8386;3169;16556;3106.5;3;P-GPS;1;0;0;0;0;0;0;1.57618E+12;4148;4149;4130;4140;0;0;28;;;;;;;0;0;0;10;-1;1590;0;0;1624;6;5;0;0.75;0;0;0;0;;;100;100;0;2;0;0;0;2;0;;;;;6.6;0;0
-29.447897;-53.285895;0.5;0.6;0;0.08;0.5;0.5;0.2;0.1;4404;43:56.3;43:56.3;11;0;0;16.556;-29.447898;-53.285895;0;0;0;-0.9;-0.1;159;0;1;0;85;100;-8386;3169;16556;3106.5;3;P-GPS;1;0;0;0;0;0;0;1.57618E+12;4148;4149;4130;4140;0;0;28;;;;;;;0;0;0;9;-1;1590;0;0;1624;6;5;0;0.77;0;0;0;0;;;100;100;0;2;0;0;0;2;0;;;;;6.6;0;0
-29.447897;-53.285895;0.5;0.6;0;0.07;0.5;0.5;0.2;0.1;4509;43:56.4;43:56.4;11;0;0;16.556;-29.447898;-53.285895;0;0;0;-0.9;-0.1;159;0;1;0;85;100;-8386;3169;16556;3106.5;3;P-GPS;1;0;0;0;0;0;0;1.57618E+12;4148;4149;4130;4140;0;0;28;;;;;;;0;0;0;9;-1;1590;0;0;1624;6;5;0;0.72;0;0;0;0;;;100;100;0;2;0;0;0;2;0;;;;;6.6;0;0
-29.447897;-53.285895;0.5;0.6;0;0.07;0.5;0.5;0.2;0.1;4604;43:56.5;43:56.5;11;0;0;16.556;-29.447898;-53.285895;0;0;0;-0.9;-0.1;159;0;1;0;85;100;-8386;3169;16556;3106.5;3;P-GPS;1;0;0;0;0;0;0;1.57618E+12;4148;4149;4130;4140;0;0;28;;;;;;;0;0;0;9;-1;1590;0;0;1624;6;5;0;0.74;0;0;0;0;;;100;100;0;2;0;0;0;2;0;;;;;6.6;0;0
-29.447897;-53.285895;0.5;0.6;0;0.09;0.5;0.5;0.2;0.1;4701;43:56.6;43:56.6;11;0;0;16.556;-29.447898;-53.285895;0;0;0;-0.9;-0.1;158.9;0;1;0;85;100;-8386;3169;16556;3106.5;3;P-GPS;1;0;0;0;0;0;0;1.57618E+12;4148;4149;4130;4140;0;0;28;;;;;;;0;0;0;9;-1;1589;0;0;1624;6;5;0;0.9;0;0;0;0;;;100;100;0;2;0;0;0;2;0;;;;;6.5;0;0
-29.447897;-53.285895;0.5;0.6;0;0.1;0.5;0.5;0.2;0.1;4800;43:56.7;43:56.7;11;0;0;16.539;-29.447898;-53.285895;0;0;0;-0.9;-0.1;158.9;0;1;0;85;100;-8349;3162;16539;3106.5;3;P-GPS;1;0;0;0;0;0;0;1.57618E+12;4148;4149;4130;4140;0;0;28;;;;;;;0;0;0;9;-1;1589;0;0;1624;6;5;0;0.95;0;0;0;0;;;100;100;0;2;0;0;0;2;0;;;;;6.5;0;0
-29.447897;-53.285895;0.5;0.6;0;0.11;0.5;0.5;0.2;0.11;4902;43:56.8;43:56.8;11;0;0;16.539;-29.447898;-53.285895;0;0;0;-0.8;0;158.9;0;1;0;85;100;-8349;3162;16539;3106.5;3;P-GPS;1;0;0;0;0;0;0;1.57618E+12;4148;4149;4130;4140;0;0;28;;;;;;;0;0;0;8;0;1589;0;0;1624;6;5;0;1.11;0;0;0;0;;;100;100;0;2;0;0;0;2;0;;;;;6.5;0;0
-29.447897;-53.285895;0.5;0.6;0;0.12;0.5;0.5;0.2;0.12;5001;43:56.9;43:56.9;11;0;0;16.539;-29.447898;-53.285895;0;0;0;-0.8;0;158.9;0;1;0;85;100;-8349;3162;16539;3106.5;3;P-GPS;1;0;0;0;0;0;0;1.57618E+12;4148;4149;4130;4140;0;0;28;;;;;;;0;0;0;8;0;1589;0;0;1624;6;5;0;1.2;0;0;0;0;;;100;100;0;2;0;0;0;2;0;;;;;6.5;0;0
-29.447897;-53.285894;0.5;0.6;0;0.15;0.5;0.5;0.2;0.15;5101;43:57.0;43:57.0;11;0;0;16.539;-29.447898;-53.285895;0;0;0;-0.8;-0.1;158.8;0;1;0;85;100;-8349;3162;16539;3106.5;3;P-GPS;1;0;0;0;0;0;0;1.57618E+12;4148;4149;4130;4140;0;0;28;;;;;;;0;0;0;8;-1;1588;0;0;1624;6;5;0;1.48;0;0;0;0;;;100;100;0;2;0;0;0;2;0;;;;;6.5;0;0
-29.447897;-53.285894;0.5;0.6;0;0.16;0.5;0.5;0.2;0.16;5199;43:57.1;43:57.1;11;0;0;16.539;-29.447898;-53.285895;0;0;0;-0.8;0;158.8;0;1;0;85;100;-8349;3162;16539;3106.5;3;P-GPS;1;0;0;0;0;0;0;1.57618E+12;4148;4149;4130;4140;0;0;28;;;;;;;0;0;0;8;0;1588;0;0;1624;6;5;0;1.6;0;0;0;0;;;100;100;0;2;0;0;0;2;0;;;;;6.5;0;0
-29.447897;-53.285894;0.5;0.6;0;0.16;0.5;0.5;0.2;0.16;5289;43:57.1;43:57.1;12;0;0;16.539;-29.447898;-53.285895;0;0;0;-0.8;-0.1;158.8;0;1;0;85;100;-8349;3162;16539;3106.5;3;P-GPS;1;0;0;0;0;0;0;1.57618E+12;4148;4149;4130;4140;0;0;28;;;;;;;0;0;0;8;-1;1588;0;0;1624;6;5;0;1.63;0;0;0;0;;;100;100;0;2;0;0;0;2;0;;;;;6.5;0;0
-29.447897;-53.285894;0.5;0.6;0;0.18;0.5;0.5;0.2;0.18;5405;43:57.3;43:57.3;12;0;0;16.539;-29.447898;-53.285895;0;0;0;-0.8;-0.1;158.8;0;1;0;85;100;-8349;3162;16539;3106.5;3;P-GPS;1;0;0;0;0;0;0;1.57618E+12;4148;4149;4130;4140;0;0;28;;;;;;;0;0;0;8;-1;1588;0;0;1624;6;5;0;1.75;0;0;0;0;;;100;100;0;2;0;0;0;2;0;;;;;6.5;0;0
-29.447896;-53.285894;0.5;0.6;0;0.18;0.5;0.5;0.2;0.18;5507;43:57.4;43:57.4;12;0;0;16.539;-29.447898;-53.285895;0;0;0;-0.8;-0.1;158.8;0;1;0;85;100;-8349;3162;16539;3106.5;3;P-GPS;1;0;0;0;0;0;0;1.57618E+12;4148;4149;4130;4140;0;0;28;;;;;;;0;0;0;8;-1;1588;0;0;1624;6;5;0;1.85;0;0;0;0;;;100;100;0;2;0;0;0;2;0;;;;;6.5;0;0
-29.447896;-53.285894;0.5;0.6;0;0.2;0.5;0.5;0.2;0.2;5609;43:57.5;43:57.5;12;0;0;16.539;-29.447898;-53.285895;0;0;0;-0.8;-0.1;158.8;0;1;0;85;100;-8349;3162;16539;3106.5;3;P-GPS;1;0;0;0;0;0;0;1.57618E+12;4148;4149;4130;4140;0;0;28;;;;;;;0;0;0;8;-1;1588;0;0;1624;6;5;0;1.98;0;0;0;0;;;100;100;0;2;0;0;0;2;0;;;;;6.5;0;0
-29.447896;-53.285894;0.5;0.6;0;0.21;0.5;0.5;0.2;0.21;5705;43:57.6;43:57.6;12;0;0;16.539;-29.447898;-53.285895;0;0;0;-0.8;-0.1;158.8;0;1;0;85;100;-8349;3162;16539;3106.5;3;P-GPS;1;0;0;0;0;0;0;1.57618E+12;4148;4149;4130;4140;0;0;28;;;;;;;0;0;0;8;-1;1588;0;0;1624;6;5;0;2.06;0;0;0;0;;;100;100;0;2;0;0;0;2;0;;;;;6.5;0;0
-29.447896;-53.285894;0.5;0.6;0;0.22;0.5;0.5;0.2;0.22;5803;43:57.7;43:57.7;12;0;0;16.539;-29.447898;-53.285895;0;0;0;-0.8;0;158.8;0;1;0;85;100;-8349;3162;16539;3106.5;3;P-GPS;1;0;0;0;0;0;0;1.57618E+12;4148;4149;4130;4140;0;0;28;;;;;;;0;0;0;8;0;1588;0;0;1624;6;5;0;2.2;0;0;0;0;;;100;100;0;2;0;0;0;2;0;;;;;6.6;0;0
-29.447896;-53.285894;0.5;0.6;0;0.23;0.5;0.5;0.2;0.23;5903;43:57.8;43:57.8;12;0;0;16.539;-29.447898;-53.285895;0;0;0;-0.8;0;158.8;0;1;0;85;100;-8349;3162;16539;3106.5;3;P-GPS;1;0;0;0;0;0;0;1.57618E+12;4148;4149;4130;4140;0;0;28;;;;;;;0;0;0;8;0;1588;0;0;1624;6;5;0;2.28;0;0;0;0;;;100;100;0;2;0;0;0;2;0;;;;;6.6;0;0
-29.447896;-53.285894;0.5;0.6;0;0.24;0.5;0.5;0.2;0.24;6006;43:57.9;43:57.9;12;0;0;16.539;-29.447898;-53.285895;0;0;0;-0.8;0;158.8;0;1;0;85;100;-8349;3162;16539;3106.5;3;P-GPS;1;0;0;0;0;0;0;1.57618E+12;4148;4149;4130;4140;0;0;28;;;;;;;0;0;0;8;0;1588;0;0;1624;6;5;0;2.41;0;0;0;0;;;100;100;0;2;0;0;0;2;0;;;;;6.6;0;0
-29.447896;-53.285893;0.5;0.6;0;0.26;0.5;0.5;0.2;0.26;6105;43:58.0;43:58.0;12;0;0;16.539;-29.447898;-53.285895;0;0;0;-0.8;0;158.8;0;1;0;85;100;-8349;3162;16539;3106.5;3;P-GPS;1;0;0;0;0;0;0;1.57618E+12;4148;4149;4130;4140;0;0;28;;;;;;;0;0;0;8;0;1588;0;0;1624;6;5;0;2.6;0;0;0;0;;;100;100;0;2;0;0;0;2;0;;;;;6.6;0;0
-29.447896;-53.285893;0.5;0.6;0;0.28;0.5;0.5;0.2;0.28;6207;43:58.1;43:58.1;12;0;0;16.539;-29.447898;-53.285895;0;0;0;-0.8;0;158.8;0;1;0;85;100;-8349;3162;16539;3106.5;3;P-GPS;1;0;0;0;0;0;0;1.57618E+12;4148;4149;4130;4140;0;0;28;;;;;;;0;0;0;8;0;1588;0;0;1624;6;5;0;2.76;0;0;0;0;;;100;100;0;2;0;0;0;2;0;;;;;6.5;0;0
-29.447896;-53.285893;0.5;0.6;0;0.28;0.5;0.5;0.2;0.28;6305;43:58.2;43:58.2;13;0;0;16.539;-29.447898;-53.285895;0;0;0;-0.7;0.1;158.8;0;1;0;85;100;-8349;3162;16539;3106.5;3;P-GPS;1;0;0;0;0;0;0;1.57618E+12;4148;4149;4130;4140;0;0;28;;;;;;;0;0;0;7;1;1588;0;0;1624;6;5;0;2.81;0;0;0;0;;;100;100;0;2;0;0;0;2;0;;;;;6.5;0;0
-29.447896;-53.285893;0.5;0.6;0;0.3;0.5;0.5;0.2;0.3;6399;43:58.3;43:58.3;13;0;0;16.539;-29.447898;-53.285895;0;0;0;-0.7;0.2;158.8;0;1;0;85;100;-8349;3162;16539;3106.5;3;P-GPS;1;0;0;0;0;0;0;1.57618E+12;4148;4149;4130;4140;0;0;28;;;;;;;0;0;0;7;2;1588;0;0;1624;6;5;0;2.96;0;0;0;0;;;100;100;0;2;0;0;0;2;0;;;;;6.6;0;0
-29.447896;-53.285893;0.5;0.6;0;0.29;0.5;0.5;0.2;0.3;6502;43:58.4;43:58.4;13;0;0;16.539;-29.447898;-53.285895;0;0;0;-0.7;0.2;158.8;0;1;0;85;100;-8349;3162;16539;3106.5;3;P-GPS;1;0;0;0;0;0;0;1.57618E+12;4148;4149;4130;4140;0;0;28;;;;;;;0;0;0;7;2;1588;0;0;1624;6;5;0;2.9;0;0;0;0;;;100;100;0;2;0;0;0;2;0;;;;;6.6;0;0
-29.447896;-53.285893;0.5;0.6;0;0.3;0.5;0.5;0.2;0.3;6606;43:58.5;43:58.5;13;0;0;16.539;-29.447898;-53.285895;0;0;0;-0.8;0.2;158.8;0;1;0;85;100;-8349;3162;16539;3106.5;3;P-GPS;1;0;0;0;0;0;0;1.57618E+12;4148;4149;4130;4140;0;0;28;;;;;;;0;0;0;8;2;1588;0;0;1624;6;5;0;3.04;0;0;0;0;;;100;100;0;2;0;0;0;2;0;;;;;6.6;0;0
-29.447896;-53.285893;0.5;0.6;0;0.3;0.5;0.5;0.2;0.3;6705;43:58.6;43:58.6;13;0;0;16.539;-29.447898;-53.285895;0;0;0;-0.8;0.2;158.8;0;1;0;85;100;-8349;3162;16539;3106.5;3;P-GPS;1;0;0;0;0;0;0;1.57618E+12;4148;4149;4130;4140;0;0;28;;;;;;;0;0;0;8;2;1588;0;0;1624;6;5;0;3.01;0;0;0;0;;;100;100;0;2;0;0;0;2;0;;;;;6.6;0;0
-29.447896;-53.285893;0.5;0.6;0;0.31;0.5;0.5;0.2;0.31;6806;43:58.7;43:58.7;13;0;0;16.533;-29.447898;-53.285895;0;0;0;-0.7;0.3;158.9;0;1;0;85;100;-8298;3160;16533;3107.5;3;P-GPS;1;0;0;0;0;0;0;1.57618E+12;4148;4149;4130;4140;0;0;28;;;;;;;0;0;0;7;3;1589;0;0;1624;6;5;0;3.13;0;0;0;0;;;100;100;0;2;0;0;0;2;0;;;;;6.6;0;0
-29.447896;-53.285893;0.5;0.6;0;0.31;0.5;0.5;0.2;0.31;6904;43:58.8;43:58.8;13;0;0;16.533;-29.447898;-53.285895;0;0;0;-0.7;0.2;158.9;0;1;0;85;100;-8298;3160;16533;3107.5;3;P-GPS;1;0;0;0;0;0;0;1.57618E+12;4148;4149;4130;4140;0;0;28;;;;;;;0;0;0;7;2;1589;0;0;1624;6;5;0;3.12;0;0;0;0;;;100;100;0;2;0;0;0;2;0;;;;;6.6;0;0
-29.447896;-53.285893;0.5;0.6;0;0.32;0.5;0.5;0.2;0.32;7006;43:58.9;43:58.9;13;0;0;16.533;-29.447898;-53.285895;0;0;0;-0.6;0.2;158.9;0;1;0;85;100;-8298;3160;16533;3107.5;3;P-GPS;1;0;0;0;0;0;0;1.57618E+12;4148;4149;4130;4140;0;0;28;;;;;;;0;0;0;6;2;1589;0;0;1624;6;5;0;3.23;0;0;0;0;;;100;100;0;2;0;0;0;2;0;;;;;6.6;0;0
-29.447896;-53.285893;0.5;0.6;0;0.32;0.5;0.5;0.2;0.32;7103;43:59.0;43:59.0;13;0;0;16.533;-29.447898;-53.285895;0;0;0;-0.7;0.2;159;0;1;0;85;100;-8298;3160;16533;3107.5;3;P-GPS;1;0;0;0;0;0;0;1.57618E+12;4148;4149;4130;4140;0;0;28;;;;;;;0;0;0;7;2;1590;0;0;1624;6;5;0;3.24;0;0;0;0;;;100;100;0;2;0;0;0;2;0;;;;;6.6;0;0
-29.447896;-53.285893;0.5;0.6;0;0.33;0.5;0.5;0.2;0.33;7207;43:59.1;43:59.1;13;0;0;16.533;-29.447898;-53.285895;0;0;0;-0.7;0.3;159;0;1;0;85;100;-8298;3160;16533;3107.5;3;P-GPS;1;0;0;0;0;0;0;1.57618E+12;4148;4149;4130;4140;0;0;28;;;;;;;0;0;0;7;3;1590;0;0;1624;6;5;0;3.34;0;0;0;0;;;100;100;0;2;0;0;0;2;0;;;;;6.6;0;0
-29.447896;-53.285893;0.5;0.6;0;0.34;0.5;0.5;0.2;0.34;7299;43:59.2;43:59.2;13;0;0;16.533;-29.447898;-53.285895;0;0;0;-0.8;0.3;159;0;1;0;85;100;-8298;3160;16533;3107.5;3;P-GPS;1;0;0;0;380;0;0;1.57618E+12;4148;4149;4130;4140;0;0;28;;;;;;;0;0;0;8;3;1590;0;0;1624;6;5;0;3.36;0;0;0;0;;;100;100;0;2;0;0;0;2;0;;;;;6.6;0;0
-29.447895;-53.285893;0.5;0.6;0.2;0.35;0.5;0.5;0.2;0.35;7402;43:59.3;43:59.3;13;0;0;16.533;-29.447898;-53.285895;0;0;-0.2;-0.9;0.3;159;0;1;0;85;100;-8298;3160;16533;3107.5;3;P-GPS;1;0;0;0;550;0;0;1.57618E+12;4148;4149;4130;4140;0;0;28;;;;;;;0;0;0;9;3;1590;0;0;1624;6;5;2;3.45;0;0;-2;0;;;100;100;0;2;0;0;0;2;0;;;;;6.5;0;0
-29.447895;-53.285893;0.5;0.6;0.6;0.35;0.5;0.5;0.6;0.35;7502;43:59.4;43:59.4;13;0;0;16.533;-29.447898;-53.285895;0;0;-0.6;-0.9;0.3;159.1;0;1;0;85;100;-8298;3160;16533;3107.5;3;P-GPS;1;0;0;0;579;0;0;1.57618E+12;4148;4149;4130;4140;0;0;28;;;;;;;0;0;0;9;3;1591;0;0;1624;6;5;6;3.48;0;0;-6;0;;;100;100;0;2;0;0;0;2;0;;;;;6.5;0;0
-29.447895;-53.285893;0.6;0.7;1;0.35;0.6;0.6;1;0.35;7608;43:59.5;43:59.5;13;0;0;16.533;-29.447898;-53.285895;0;0;-1;-0.6;0.5;159.1;0;1;0;85;100;-8298;3160;16533;3107.5;3;P-GPS;1;0;0;0;566;0;0;1.57618E+12;4148;4149;4130;4140;0;0;28;;;;;;;0;0;0;6;5;1591;0;0;1624;6;6;10;3.54;0;0;-10;0;;;100;100;0;2;0;0;0;2;0;;;;;6.5;0;0
-29.447895;-53.285893;0.7;0.8;1.5;0.36;0.7;0.7;1.5;0.36;7699;43:59.6;43:59.6;13;0;0;16.533;-29.447898;-53.285895;0;0;-1.5;-0.4;0.5;159.1;0;1;0;85;100;-8298;3160;16533;3107.5;3;P-GPS;1;0;0;0;545;0;0;1.57618E+12;4148;4149;4130;4140;0;0;28;;;;;;;0;0;0;4;5;1591;0;0;1624;6;7;15;3.57;0;0;-15;0;;;100;100;0;2;0;0;0;2;0;;;;;6.5;0;0
-29.447895;-53.285893;0.9;1;1.9;0.36;0.9;0.9;1.9;0.36;7800;43:59.7;43:59.7;13;0;0;16.526;-29.447898;-53.285895;0;0;-1.9;-0.4;0.3;159;0;1;0;85;100;-8298;3160;16526;3107.5;3;P-GPS;1;0;0;0;541;0;0;1.57618E+12;4148;4149;4130;4140;0;0;28;;;;;;;0;0;0;4;3;1590;0;0;1624;6;9;19;3.62;0;0;-19;0;;;100;100;0;2;0;0;0;2;0;;;;;6.5;0;0
-29.447895;-53.285893;1.1;1.2;2.2;0.37;1.1;1.1;2.2;0.37;7900;43:59.8;43:59.8;13;0;0;16.526;-29.447898;-53.285895;0;0;-2.2;-0.2;0.2;158.9;0;1;0;85;100;-8298;3160;16526;3107.5;3;P-GPS;1;0;0;0;364;0;0;1.57618E+12;4148;4149;4130;4140;0;0;28;;;;;;;0;0;0;2;2;1589;0;0;1624;6;11;22;3.68;0;0;-22;0;;;100;100;0;2;0;0;0;2;0;;;;;6.5;0;0
-29.447895;-53.285893;1.3;1.5;2.1;0.37;1.3;1.3;2.2;0.37;8000;43:59.9;43:59.9;13;0;0;16.526;-29.447898;-53.285895;0;0;-2.1;-0.3;0;158.8;0;1;0;85;100;-8298;3160;16526;3107.5;3;P-GPS;1;0;0;0;219;0;0;1.57618E+12;4148;4149;4130;4140;0;0;28;;;;;;;0;0;0;3;0;1588;0;0;1624;6;13;21;3.74;0;0;-21;0;;;100;100;0;2;0;0;0;2;0;;;;;6.6;0;0
-29.447895;-53.285893;1.6;1.7;1.8;0.39;1.6;1.6;2.2;0.39;8104;44:00.0;44:00.0;13;0;0;16.526;-29.447898;-53.285895;0;0;-1.8;-0.6;0.1;158.8;0;1;0;85;100;-8298;3160;16526;3107.5;3;P-GPS;1;0;0;0;66;0;0;1.57618E+12;4148;4149;4130;4140;0;0;28;;;;;;;0;0;0;6;1;1588;0;0;1624;6;16;18;3.86;0;0;-18;0;;;100;100;0;2;0;0;0;2;0;;;;;6.6;0;0
-29.447895;-53.285893;1.7;1.8;1.5;0.39;1.7;1.7;2.2;0.39;8206;44:00.1;44:00.1;13;0;0;16.526;-29.447898;-53.285895;0;0;-1.5;-0.9;0.3;158.8;0;1;0;85;100;-8298;3160;16526;3107.5;3;P-GPS;1;0;0;0;0;0;0;1.57618E+12;4148;4149;4130;4140;0;0;28;;;;;;;0;0;0;9;3;1588;0;0;1624;6;17;15;3.94;0;0;-15;0;;;100;100;0;2;0;0;0;2;0;;;;;0;0;0
-29.447895;-53.285892;1.9;1.9;1.2;0.4;1.9;1.9;2.2;0.4;8301;44:00.2;44:00.2;13;0;0;16.526;-29.447898;-53.285895;0;0;-1.2;-1.1;0.4;158.8;0;1;0;85;100;-8298;3160;16526;3107.5;3;P-GPS;1;0;0;0;0;0;0;1.57618E+12;4148;4149;4130;4140;0;0;28;;;;;;;0;0;0;11;4;1588;0;0;1624;6;19;12;4.03;0;0;-12;0;;;100;100;0;2;0;0;0;2;0;;;;;0;0;0
-29.447895;-53.285892;2;2;0.8;0.41;2;2;2.2;0.41;8404;44:00.3;44:00.3;13;0;0;16.526;-29.447898;-53.285895;0;0;-0.8;-1.4;0.7;158.7;0;1;0;85;100;-8298;3160;16526;3107.5;3;P-GPS;1;0;0;0;0;0;0;1.57618E+12;4148;4149;4130;4140;0;0;28;;;;;;;0;0;0;14;7;1587;0;0;1624;6;20;8;4.11;0;0;-8;0;;;100;100;0;2;0;0;0;2;0;;;;;0;0;0
-29.447895;-53.285892;2.1;2.1;0.4;0.46;2.1;2.1;2.2;0.46;8506;44:00.4;44:00.4;11;0;0;16.526;-29.447898;-53.285895;0;0;-0.4;-1.5;0.9;158.7;0;1;0;85;100;-8298;3160;16526;3107.5;3;P-GPS;1;0;0;0;30;0;0;1.57618E+12;4148;4149;4130;4140;0;0;28;;;;;;;0;0;0;15;9;1587;0;0;1624;6;21;4;4.62;0;0;-4;0;;;100;100;0;2;0;0;0;2;0;;;;;0;0;0
-29.447895;-53.285892;2.1;2.1;0.2;0.47;2.1;2.1;2.2;0.47;8603;44:00.5;44:00.5;11;0;0;16.526;-29.447898;-53.285895;0;0;-0.2;-1.7;1.1;158.7;0;1;0;85;100;-8298;3160;16526;3107.5;3;P-GPS;1;0;0;0;196;0;0;1.57618E+12;4148;4149;4130;4140;0;0;28;;;;;;;0;0;0;17;11;1587;0;0;1624;6;21;2;4.74;0;0;-2;0;;;100;100;0;2;0;0;0;2;0;;;;;0;0;0
-29.447895;-53.285892;2.1;2.1;0.2;0.44;2.1;2.1;2.2;0.47;8702;44:00.6;44:00.6;11;0;0;16.526;-29.447898;-53.285895;0;0;-0.2;-1.7;1.2;158.7;0;1;0;85;100;-8298;3160;16526;3107.5;3;P-GPS;1;0;0;0;137;0;0;1.57618E+12;4148;4149;4130;4140;0;0;28;;;;;;;0;0;0;17;12;1587;0;0;1624;6;21;2;4.41;0;0;-2;0;;;100;100;0;2;0;0;0;2;0;;;;;0;0;0
-29.447895;-53.285892;2.1;2.2;0.1;0.45;2.1;2.1;2.2;0.47;8808;44:00.7;44:00.7;11;0;0;16.37;-29.447898;-53.285895;0;0;-0.1;-1.6;1.1;158.8;0;1;0;85;100;-10949;3155;16370;3107.5;3;P-GPS;1;0;0;0;0;0;0;1.57618E+12;4148;4149;4130;4140;0;0;28;;;;;;;0;0;0;16;11;1588;0;0;1624;6;21;1;4.47;0;0;-1;0;;;100;100;0;2;0;0;0;2;0;;;;;0;0;0
-29.447894;-53.285892;2.1;2.2;0;0.49;2.1;2.1;2.2;0.49;8900;44:00.8;44:00.8;10;0;0;16.37;-29.447898;-53.285895;0;0;0;-1.4;0.9;158.8;0;1;0;85;100;-10949;3155;16370;3107.5;3;P-GPS;1;0;0;0;0;0;0;1.57618E+12;4148;4149;4130;4140;0;0;28;;;;;;;0;0;0;14;9;1588;0;0;1624;6;21;0;4.95;0;0;0;0;;;100;100;0;2;0;0;0;2;0;;;;;0;0;0
-29.447894;-53.285892;2.1;2.2;0;0.5;2.1;2.1;2.2;0.5;8998;44:00.9;44:00.9;10;0;0;16.37;-29.447898;-53.285895;0;0;0;-1.3;0.5;158.8;0;1;0;85;100;-10949;3155;16370;3107.5;3;P-GPS;1;0;0;0;0;0;0;1.57618E+12;4148;4149;4130;4140;0;0;28;;;;;;;0;0;0;13;5;1588;0;0;1624;6;21;0;5.02;0;0;0;0;;;100;100;0;2;0;0;0;2;0;;;;;0;0;0
-29.447894;-53.285892;2.1;2.1;0;0.5;2.1;2.1;2.2;0.5;9094;44:00.9;44:00.9;11;0;0;16.37;-29.447898;-53.285895;0;0;0;-1.2;0.3;158.8;0;1;0;85;100;-10949;3155;16370;3107.5;3;P-GPS;1;0;0;0;0;0;0;1.57618E+12;4148;4149;4130;4140;0;0;28;;;;;;;0;0;0;12;3;1588;0;0;1624;6;21;0;5.01;0;0;0;0;;;100;100;0;2;0;0;0;2;0;;;;;0;0;0
-29.447894;-53.285892;2.1;2.1;0;0.51;2.1;2.1;2.2;0.51;9199;44:01.1;44:01.1;11;0;0;16.37;-29.447898;-53.285895;0;0;0;-1.1;0.1;158.8;0;1;0;85;100;-10949;3155;16370;3107.5;3;P-GPS;1;0;0;0;0;0;0;1.57618E+12;4148;4149;4130;4140;0;0;28;;;;;;;0;0;0;11;1;1588;0;0;1624;6;21;0;5.08;0;0;0;0;;;100;100;0;2;0;0;0;2;0;;;;;0;0;0
-29.447894;-53.285892;2.1;2.1;0;0.51;2.1;2.1;2.2;0.51;9308;44:01.2;44:01.2;11;0;0;16.37;-29.447898;-53.285895;0;0;0;-1;0.1;158.9;0;1;0;85;100;-10949;3155;16370;3107.5;3;P-GPS;1;0;0;0;0;0;0;1.57618E+12;4148;4149;4130;4140;0;0;28;;;;;;;0;0;0;10;1;1589;0;0;1624;6;21;0;5.06;0;0;0;0;;;100;100;0;2;0;0;0;2;0;;;;;0;0;0
-29.447894;-53.285892;2.1;2.1;0;0.51;2.1;2.1;2.2;0.51;9399;44:01.3;44:01.3;11;0;0;16.37;-29.447898;-53.285895;0;0;0;-1;0;158.9;0;1;0;85;100;-10949;3155;16370;3107.5;3;P-GPS;1;0;0;0;0;0;0;1.57618E+12;4148;4149;4130;4140;0;0;28;;;;;;;0;0;0;10;0;1589;0;0;1624;6;21;0;5.13;0;0;0;0;;;100;100;0;2;0;0;0;2;0;;;;;0;0;0
-29.447894;-53.285892;2.1;2.1;0;0.5;2.1;2.1;2.2;0.51;9509;44:01.4;44:01.4;11;0;0;16.37;-29.447898;-53.285895;0;0;0;-0.9;0;158.8;0;1;0;85;100;-10949;3155;16370;3107.5;3;P-GPS;1;0;0;0;0;0;0;1.57618E+12;4148;4149;4130;4140;0;0;28;;;;;;;0;0;0;9;0;1588;0;0;1624;6;21;0;5.03;0;0;0;0;;;100;100;0;2;0;0;0;2;0;;;;;0;0;0
-29.447894;-53.285892;2.1;2.1;0;0.51;2.1;2.1;2.2;0.51;9606;44:01.5;44:01.5;11;0;0;16.37;-29.447898;-53.285895;0;0;0;-0.9;0;158.8;0;1;0;85;100;-10949;3155;16370;3107.5;3;P-GPS;1;0;0;0;0;0;0;1.57618E+12;4148;4149;4130;4140;0;0;28;;;;;;;0;0;0;9;0;1588;0;0;1624;6;21;0;5.09;0;0;0;0;;;100;100;0;2;0;0;0;2;0;;;;;0;0;0
-29.447894;-53.285892;2.1;2.1;0;0.51;2.1;2.1;2.2;0.51;9706;44:01.6;44:01.6;12;0;0;16.37;-29.447898;-53.285895;0;0;0;-1;0;158.8;0;1;0;85;100;-10949;3155;16370;3107.5;3;P-GPS;1;0;0;0;0;0;0;1.57618E+12;4148;4149;4130;4140;0;0;28;;;;;;;0;0;0;10;0;1588;0;0;1624;6;21;0;5.11;0;0;0;0;;;100;100;0;2;0;0;0;2;0;;;;;0;0;0
-29.447894;-53.285892;2.1;2.1;0;0.52;2.1;2.1;2.2;0.52;9797;44:01.7;44:01.7;12;0;0;16.557;-29.447898;-53.285895;0;0;0;-1;0;158.9;0;1;0;85;100;-7365;3152;16557;3107.5;3;P-GPS;1;0;0;0;0;0;0;1.57618E+12;4148;4149;4130;4140;0;0;28;;;;;;;0;0;0;10;0;1589;0;0;1624;6;21;0;5.18;0;0;0;0;;;100;100;0;2;0;0;0;2;0;;;;;0;0;0
-29.447894;-53.285892;2.1;2.1;0;0.52;2.1;2.1;2.2;0.52;9901;44:01.8;44:01.8;13;0;0;16.557;-29.447898;-53.285895;0;0;0;-1;0.1;158.9;0;1;0;85;100;-7365;3152;16557;3107.5;3;P-GPS;1;0;0;0;0;0;0;1.57618E+12;4148;4149;4130;4140;0;0;28;;;;;;;0;0;0;10;1;1589;0;0;1624;6;21;0;5.22;0;0;0;0;;;100;100;0;2;0;0;0;2;0;;;;;0;0;0
-29.447894;-53.285892;2.1;2.1;0;0.53;2.1;2.1;2.2;0.53;9999;44:01.9;44:01.9;13;0;0;16.557;-29.447898;-53.285895;0;0;0;-1;0.2;158.9;0;1;0;85;100;-7365;3152;16557;3107.5;3;P-GPS;1;0;0;0;0;0;0;1.57618E+12;4148;4149;4130;4140;0;0;28;;;;;;;0;0;0;10;2;1589;0;0;1624;6;21;0;5.29;0;0;0;0;;;100;100;0;2;0;0;0;2;0;;;;;0;0;0
-29.447894;-53.285892;2.1;2.1;0;0.54;2.1;2.1;2.2;0.54;10090;44:01.9;44:01.9;14;0;0;16.557;-29.447898;-53.285895;0;0;0;-1;0.1;158.8;0;1;0;85;100;-7365;3152;16557;3107.5;3;P-GPS;1;0;0;0;0;0;0;1.57618E+12;4148;4149;4130;4140;0;0;28;;;;;;;0;0;0;10;1;1588;0;0;1624;6;21;0;5.4;0;0;0;0;;;100;100;0;2;0;0;0;2;0;;;;;0;0;0
-29.447894;-53.285892;2.1;2.1;0;0.55;2.1;2.1;2.2;0.55;10198;44:02.1;44:02.1;14;0;0;16.557;-29.447898;-53.285895;0;0;0;-1;0.2;158.8;0;1;0;85;100;-7365;3152;16557;3107.5;3;P-GPS;1;0;0;0;0;0;0;1.57618E+12;4148;4149;4130;4140;0;0;28;;;;;;;0;0;0;10;2;1588;0;0;1624;6;21;0;5.48;0;0;0;0;;;100;100;0;2;0;0;0;2;0;;;;;0;0;0
-29.447894;-53.285892;2.1;2.1;0;0.52;2.1;2.1;2.2;0.55;10301;44:02.2;44:02.2;14;0;0;16.557;-29.447898;-53.285895;0;0;0;-1;0.2;158.8;0;1;0;85;100;-7365;3152;16557;3107.5;3;P-GPS;1;0;0;0;0;0;0;1.57618E+12;4148;4149;4130;4140;0;0;28;;;;;;;0;0;0;10;2;1588;0;0;1624;6;21;0;5.22;0;0;0;0;;;100;100;0;2;0;0;0;2;0;;;;;0;0;0
-29.447894;-53.285892;2.1;2.1;0;0.53;2.1;2.1;2.2;0.55;10399;44:02.3;44:02.3;14;0;0;16.557;-29.447898;-53.285895;0;0;0;-0.9;0.2;158.8;0;1;0;85;100;-7365;3152;16557;3107.5;3;P-GPS;1;0;0;0;0;0;0;1.57618E+12;4148;4149;4130;4140;0;0;28;;;;;;;0;0;0;9;2;1588;0;0;1624;6;21;0;5.26;0;0;0;0;;;100;100;0;2;0;0;0;2;0;;;;;0;0;0
-29.447894;-53.285892;2.1;2.1;0;0.54;2.1;2.1;2.2;0.55;10504;44:02.4;44:02.4;14;0;0;16.557;-29.447898;-53.285895;0;0;0;-0.9;0.2;158.8;0;1;0;85;100;-7365;3152;16557;3107.5;3;P-GPS;1;0;0;0;0;0;0;1.57618E+12;4148;4149;4130;4140;0;0;28;;;;;;;0;0;0;9;2;1588;0;0;1624;6;21;0;5.37;0;0;0;0;;;100;100;0;2;0;0;0;2;0;;;;;0;0;0
-29.447894;-53.285892;2.1;2.1;0;0.54;2.1;2.1;2.2;0.55;10598;44:02.5;44:02.5;14;0;0;16.557;-29.447898;-53.285895;0;0;0;-0.9;0.1;158.8;0;1;0;85;100;-7365;3152;16557;3107.5;3;P-GPS;1;0;0;0;0;0;0;1.57618E+12;4148;4149;4130;4140;0;0;28;;;;;;;0;0;0;9;1;1588;0;0;1624;6;21;0;5.42;0;0;0;0;;;100;100;0;2;0;0;0;2;0;;;;;0;0;0
-29.447894;-53.285892;2.1;2.1;0;0.54;2.1;2.1;2.2;0.55;10699;44:02.6;44:02.6;13;0;0;16.557;-29.447898;-53.285895;0;0;0;-0.9;0;158.9;0;1;0;85;100;-7365;3152;16557;3107.5;3;P-GPS;1;0;0;0;0;0;0;1.57618E+12;4148;4149;4130;4140;0;0;28;;;;;;;0;0;0;9;0;1589;0;0;1624;6;21;0;5.44;0;0;0;0;;;100;100;0;2;0;0;0;2;0;;;;;0;0;0
-29.447894;-53.285892;2.1;2.1;0;0.55;2.1;2.1;2.2;0.55;10799;44:02.7;44:02.7;13;0;0;16.505;-29.447898;-53.285895;0;0;0;-1;0;158.9;0;1;0;85;100;-8064;3150;16505;3108.5;3;P-GPS;1;0;0;0;0;0;0;1.57618E+12;4148;4149;4130;4140;0;0;28;;;;;;;0;0;0;10;0;1589;0;0;1624;6;21;0;5.48;0;0;0;0;;;100;100;0;2;0;0;0;2;0;;;;;0;0;0
-29.447894;-53.285891;2.1;2.1;0;0.58;2.1;2.1;2.2;0.58;10899;44:02.8;44:02.8;13;0;0;16.505;-29.447898;-53.285895;0;0;0;-1;0;158.9;0;1;0;85;100;-8064;3150;16505;3108.5;3;P-GPS;1;0;0;0;0;0;0;1.57618E+12;4148;4149;4130;4140;0;0;28;;;;;;;0;0;0;10;0;1589;0;0;1624;6;21;0;5.78;0;0;0;0;;;100;100;0;2;0;0;0;2;0;;;;;0;0;0
-29.447894;-53.285891;2.1;2.2;0;0.59;2.1;2.1;2.2;0.59;11004;44:02.9;44:02.9;13;0;0;16.505;-29.447898;-53.285895;0;0;0;-0.9;0;158.9;0;1;0;85;100;-8064;3150;16505;3108.5;3;P-GPS;1;0;0;0;0;0;0;1.57618E+12;4148;4149;4130;4140;0;0;28;;;;;;;0;0;0;9;0;1589;0;0;1624;6;21;0;5.85;0;0;0;0;;;100;100;0;2;0;0;0;2;0;;;;;0;0;0
-29.447894;-53.285891;2.1;2.1;0;0.59;2.1;2.1;2.2;0.59;11098;44:03.0;44:03.0;13;0;0;16.505;-29.447898;-53.285895;0;0;0;-1;0;158.9;0;1;0;85;100;-8064;3150;16505;3108.5;3;P-GPS;1;0;0;0;0;0;0;1.57618E+12;4148;4149;4130;4140;0;0;28;;;;;;;0;0;0;10;0;1589;0;0;1624;6;21;0;5.95;0;0;0;0;;;100;100;0;2;0;0;0;2;0;;;;;0;0;0
-29.447894;-53.285891;2.1;2.2;0;0.6;2.1;2.1;2.2;0.6;11198;44:03.1;44:03.1;13;0;0;16.505;-29.447898;-53.285895;0;0;0;-1;0;158.9;0;1;0;85;100;-8064;3150;16505;3108.5;3;P-GPS;1;0;0;0;0;0;0;1.57618E+12;4148;4149;4130;4140;0;0;28;;;;;;;0;0;0;10;0;1589;0;0;1624;6;21;0;6.01;0;0;0;0;;;100;100;0;2;0;0;0;2;0;;;;;0;0;0
-29.447894;-53.285891;2.1;2.1;0;0.6;2.1;2.1;2.2;0.6;11300;44:03.2;44:03.2;13;0;0;16.505;-29.447898;-53.285895;0;0;0;-0.9;-0.1;158.9;0;1;0;85;100;-8064;3150;16505;3108.5;3;P-GPS;1;0;0;0;0;0;0;1.57618E+12;4148;4149;4130;4140;0;0;28;;;;;;;0;0;0;9;-1;1589;0;0;1624;6;21;0;5.98;0;0;0;0;;;100;100;0;2;0;0;0;2;0;;;;;0;0;0
-29.447894;-53.285891;2.1;2.2;0;0.6;2.1;2.1;2.2;0.6;11398;44:03.3;44:03.3;13;0;0;16.505;-29.447898;-53.285895;0;0;0;-1;-0.1;158.9;0;1;0;85;100;-8064;3150;16505;3108.5;3;P-GPS;1;0;0;0;0;0;0;1.57618E+12;4148;4149;4130;4140;0;0;28;;;;;;;0;0;0;10;-1;1589;0;0;1624;6;21;0;6.04;0;0;0;0;;;100;100;0;2;0;0;0;2;0;;;;;0;0;0
-29.447894;-53.285891;2.1;2.2;0;0.61;2.1;2.1;2.2;0.61;11499;44:03.4;44:03.4;13;0;0;16.505;-29.447898;-53.285895;0;0;0;-1;-0.1;158.9;0;1;0;85;100;-8064;3150;16505;3108.5;3;P-GPS;1;0;0;0;0;0;0;1.57618E+12;4148;4149;4130;4140;0;0;28;;;;;;;0;0;0;10;-1;1589;0;0;1624;6;21;0;6.14;0;0;0;0;;;100;100;0;2;0;0;0;2;0;;;;;0;0;0
-29.447894;-53.285891;2.1;2.2;0;0.62;2.1;2.1;2.2;0.62;11598;44:03.5;44:03.5;13;0;0;16.505;-29.447898;-53.285895;0;0;0;-1.1;-0.1;158.9;0;1;0;85;100;-8064;3150;16505;3108.5;3;P-GPS;1;0;0;0;0;0;0;1.57618E+12;4148;4149;4130;4140;0;0;28;;;;;;;0;0;0;11;-1;1589;0;0;1624;6;21;0;6.21;0;0;0;0;;;100;100;0;2;0;0;0;2;0;;;;;0;0;0
-29.447894;-53.285891;2.1;2.2;0;0.63;2.1;2.1;2.2;0.63;11703;44:03.6;44:03.6;13;0;0;16.505;-29.447898;-53.285895;0;0;0;-1.1;-0.1;158.9;0;1;0;85;100;-8064;3150;16505;3108.5;3;P-GPS;1;0;0;0;0;0;0;1.57618E+12;4148;4149;4130;4140;0;0;28;;;;;;;0;0;0;11;-1;1589;0;0;1624;6;21;0;6.3;0;0;0;0;;;100;100;0;2;0;0;0;2;0;;;;;0;0;0
-29.447894;-53.285891;2.1;2.2;0;0.64;2.1;2.1;2.2;0.64;11800;44:03.7;44:03.7;13;0;0;16.503;-29.447898;-53.285895;0;0;0;-1.1;-0.1;158.9;0;1;0;85;100;-8064;3150;16503;3108.5;3;P-GPS;1;0;0;0;0;0;0;1.57618E+12;4148;4149;4130;4140;0;0;28;;;;;;;0;0;0;11;-1;1589;0;0;1624;6;21;0;6.37;0;0;0;0;;;100;100;0;2;0;0;0;2;0;;;;;0;0;0
-29.447894;-53.285891;2.1;2.2;0;0.62;2.1;2.1;2.2;0.64;11900;44:03.8;44:03.8;14;0;0;16.503;-29.447898;-53.285895;0;0;0;-1.1;-0.1;158.9;0;1;0;85;100;-8064;3150;16503;3108.5;3;P-GPS;1;0;0;0;0;0;0;1.57618E+12;4148;4149;4130;4140;0;0;28;;;;;;;0;0;0;11;-1;1589;0;0;1624;6;21;0;6.23;0;0;0;0;;;100;100;0;2;0;0;0;2;0;;;;;0;0;0
-29.447894;-53.285891;2.1;2.2;0;0.63;2.1;2.1;2.2;0.64;12000;44:03.9;44:03.9;14;0;0;16.503;-29.447898;-53.285895;0;0;0;-1.1;-0.1;158.9;0;1;0;85;100;-8064;3150;16503;3108.5;3;P-GPS;1;0;0;0;0;0;0;1.57618E+12;4148;4149;4130;4140;0;0;28;;;;;;;0;0;0;11;-1;1589;0;0;1624;6;21;0;6.28;0;0;0;0;;;100;100;0;2;0;0;0;2;0;;;;;0;0;0
-29.447894;-53.285891;2.1;2.2;0;0.64;2.1;2.1;2.2;0.64;12101;44:04.0;44:04.0;14;0;0;16.503;-29.447898;-53.285895;0;0;0;-1.1;-0.2;158.9;0;1;0;85;100;-8064;3150;16503;3108.5;3;P-GPS;1;0;0;0;0;0;0;1.57618E+12;4148;4149;4130;4140;0;0;28;;;;;;;0;0;0;11;-2;1589;0;0;1624;6;21;0;6.39;0;0;0;0;;;100;100;0;2;0;0;0;2;0;;;;;0;0;0
-29.447893;-53.285891;2.1;2.2;0;0.64;2.1;2.1;2.2;0.64;12205;44:04.1;44:04.1;14;0;0;16.503;-29.447898;-53.285895;0;0;0;-1;-0.1;158.9;0;1;0;85;100;-8064;3150;16503;3108.5;3;P-GPS;1;0;0;0;6;0;0;1.57618E+12;4148;4149;4130;4140;0;0;28;;;;;;;0;0;0;10;-1;1589;0;0;1624;6;21;0;6.45;0;0;0;0;;;100;100;0;2;0;0;0;2;0;;;;;0;0;0
-29.447894;-53.285891;2.1;2.2;0;0.63;2.1;2.1;2.2;0.64;12302;44:04.2;44:04.2;14;0;0;16.503;-29.447898;-53.285895;0;0;0;-1;-0.1;158.9;0;1;0;85;100;-8064;3150;16503;3108.5;3;P-GPS;1;0;0;0;212;0;0;1.57618E+12;4148;4149;4130;4140;0;0;28;;;;;;;0;0;0;10;-1;1589;0;0;1624;6;21;0;6.34;0;0;0;0;;;100;100;0;2;0;0;0;2;0;;;;;0;0;0
-29.447894;-53.285891;2.1;2.2;0.1;0.64;2.1;2.1;2.2;0.64;12413;44:04.3;44:04.3;14;0;0;16.503;-29.447898;-53.285895;0;0;-0.1;-1.1;-0.1;159;0;1;0;85;100;-8064;3150;16503;3108.5;3;P-GPS;1;0;0;0;313;0;0;1.57618E+12;4130;4130;4113;4123;0;0;28;;;;;;;0;0;0;11;-1;1590;0;0;1624;6;21;1;6.38;0;0;-1;0;;;100;100;0;2;0;0;0;2;0;;;;;0;0;0
-29.447894;-53.285891;2.1;2.2;0.4;0.64;2.1;2.1;2.2;0.64;12499;44:04.4;44:04.4;14;0;0;16.503;-29.447898;-53.285895;0;0;-0.4;-1.2;-0.1;159;0;1;0;85;100;-8064;3150;16503;3108.5;3;P-GPS;1;0;0;0;435;0;0;1.57618E+12;4130;4130;4113;4123;0;0;28;;;;;;;0;0;0;12;-1;1590;0;0;1624;6;21;4;6.39;0;0;-4;0;;;100;100;0;2;0;0;0;2;0;;;;;0;0;0
-29.447894;-53.285891;2.2;2.3;0.8;0.64;2.2;2.2;2.2;0.64;12599;44:04.5;44:04.5;14;0;0;16.503;-29.447898;-53.285895;0;0;-0.8;-1.1;-0.1;158.9;0;1;0;85;100;-8064;3150;16503;3108.5;3;P-GPS;1;0;0;0;273;0;0;1.57618E+12;4130;4130;4113;4123;0;0;28;;;;;;;0;0;0;11;-1;1589;0;0;1624;6;22;8;6.41;0;0;-8;0;;;100;100;0;2;0;0;0;2;0;;;;;0;0;0
-29.447894;-53.285891;2.3;2.4;0.8;0.63;2.3;2.3;2.2;0.64;12705;44:04.6;44:04.6;14;0;0;16.503;-29.447898;-53.285895;0;0;-0.8;-0.9;-0.3;158.9;0;1;0;85;100;-8064;3150;16503;3108.5;3;P-GPS;1;0;0;0;0;0;0;1.57618E+12;4130;4130;4113;4123;0;0;28;;;;;;;0;0;0;9;-3;1589;0;0;1624;6;23;8;6.33;0;0;-8;0;;;100;100;0;2;0;0;0;2;0;;;;;0;0;0
-29.447894;-53.285891;2.4;2.4;0.6;0.63;2.4;2.4;2.2;0.64;12806;44:04.7;44:04.7;14;0;0;16.495;-29.447898;-53.285895;0;0;-0.6;-0.9;-0.4;158.8;0;1;0;84;100;-8295;3145;16495;3108.5;3;P-GPS;1;0;0;0;0;0;0;1.57618E+12;4130;4130;4113;4123;0;0;28;;;;;;;0;0;0;9;-4;1588;0;0;1624;6;24;6;6.34;0;0;-6;0;;;100;100;0;2;0;0;0;2;0;;;;;0;0;0
-29.447894;-53.285891;2.4;2.5;0.4;0.64;2.4;2.4;2.2;0.64;12909;44:04.8;44:04.8;13;0;0;16.495;-29.447898;-53.285895;0;0;-0.4;-0.9;-0.3;158.8;0;1;0;84;100;-8295;3145;16495;3108.5;3;P-GPS;1;0;0;0;0;0;0;1.57618E+12;4130;4130;4113;4123;0;0;28;;;;;;;0;0;0;9;-3;1588;0;0;1624;6;24;4;6.39;0;0;-4;0;;;100;100;0;2;0;0;0;2;0;;;;;0;0;0
-29.447894;-53.285891;2.4;2.5;0.2;0.64;2.4;2.4;2.2;0.64;13000;44:04.9;44:04.9;13;0;0;16.495;-29.447898;-53.285895;0;0;-0.2;-0.9;-0.2;158.8;0;1;0;84;100;-8295;3145;16495;3108.5;3;P-GPS;1;0;0;0;0;0;0;1.57618E+12;4130;4130;4113;4123;0;0;28;;;;;;;0;0;0;9;-2;1588;0;0;1624;6;24;2;6.41;0;0;-2;0;;;100;100;0;2;0;0;0;2;0;;;;;0;0;0
-29.447894;-53.285891;2.5;2.5;0.1;0.65;2.5;2.5;2.2;0.65;13100;44:05.0;44:05.0;13;0;0;16.495;-29.447898;-53.285895;0;0;-0.1;-1;0;158.8;0;1;0;84;100;-8295;3145;16495;3108.5;3;P-GPS;1;0;0;0;0;0;0;1.57618E+12;4130;4130;4113;4123;0;0;28;;;;;;;0;0;0;10;0;1588;0;0;1624;6;25;1;6.48;0;0;-1;0;;;100;100;0;2;0;0;0;2;0;;;;;0;0;0
-29.447894;-53.285891;2.5;2.5;0;0.65;2.5;2.5;2.2;0.65;13199;44:05.1;44:05.1;13;0;0;16.495;-29.447898;-53.285895;0;0;0;-1.1;0;158.8;0;1;0;84;100;-8295;3145;16495;3108.5;3;P-GPS;1;0;0;0;472;0;0;1.57618E+12;4130;4130;4113;4123;0;0;28;;;;;;;0;0;0;11;0;1588;0;0;1624;6;25;0;6.5;0;0;0;0;;;100;100;0;2;0;0;0;2;0;;;;;0;0;0
-29.447894;-53.285891;2.5;2.5;0.2;0.61;2.5;2.5;2.2;0.65;13299;44:05.2;44:05.2;13;0;0;16.495;-29.447898;-53.285895;0;0;-0.2;-1.3;0;158.9;0;1;0;84;100;-8295;3145;16495;3108.5;3;P-GPS;1;0;0;0;655;0;0;1.57618E+12;4130;4130;4113;4123;0;0;28;;;;;;;0;0;0;13;0;1589;0;0;1624;6;25;2;6.12;0;0;-2;0;;;100;100;0;2;0;0;0;2;0;;;;;0;0;0
-29.447894;-53.285891;2.5;2.6;0.5;0.61;2.5;2.5;2.2;0.65;13404;44:05.3;44:05.3;13;0;0;16.495;-29.447898;-53.285895;0;0;-0.5;-1.3;0;158.8;0;1;0;84;100;-8295;3145;16495;3108.5;3;P-GPS;1;0;0;0;252;0;0;1.57618E+12;4130;4130;4113;4123;0;0;28;;;;;;;0;0;0;13;0;1588;0;0;1624;6;25;5;6.09;0;0;-5;0;;;100;100;0;2;0;0;0;2;0;;;;;0;0;0
-29.447894;-53.285891;2.6;2.6;0.4;0.61;2.6;2.6;2.2;0.65;13500;44:05.4;44:05.4;12;0;0;16.495;-29.447898;-53.285895;0;0;-0.4;-1.1;-0.4;158.8;0;1;0;84;100;-8295;3145;16495;3108.5;3;P-GPS;1;0;0;0;0;0;0;1.57618E+12;4130;4130;4113;4123;0;0;28;;;;;;;0;0;0;11;-4;1588;0;0;1624;6;26;4;6.07;0;0;-4;0;;;100;100;0;2;0;0;0;2;0;;;;;0;0;0
-29.447894;-53.285891;2.6;2.6;0.2;0.6;2.6;2.6;2.2;0.65;13600;44:05.5;44:05.5;12;0;0;16.495;-29.447898;-53.285895;0;0;-0.2;-1.1;-0.5;158.8;0;1;0;84;100;-8295;3145;16495;3108.5;3;P-GPS;1;0;0;0;0;0;0;1.57618E+12;4130;4130;4113;4123;0;0;28;;;;;;;0;0;0;11;-5;1588;0;0;1624;6;26;2;6.03;0;0;-2;0;;;100;100;0;2;0;0;0;2;0;;;;;0;0;0
-29.447894;-53.28589;2.6;2.6;0.1;0.64;2.6;2.6;2.2;0.65;13700;44:05.6;44:05.6;12;0;0;16.495;-29.447898;-53.285895;0;0;-0.1;-1;-0.6;158.7;0;1;0;84;100;-8295;3145;16495;3108.5;3;P-GPS;1;0;0;0;0;0;0;1.57618E+12;4130;4130;4113;4123;0;0;28;;;;;;;0;0;0;10;-6;1587;0;0;1624;6;26;1;6.37;0;0;-1;0;;;100;100;0;2;0;0;0;2;0;;;;;0;0;0
-29.447894;-53.28589;2.6;2.7;0;0.64;2.6;2.6;2.2;0.65;13800;44:05.7;44:05.7;12;0;0;16.495;-29.447898;-53.285895;0;0;0;-1;-0.4;158.7;0;1;0;84;100;-9484;3143;16495;3108.5;3;P-GPS;1;0;0;0;0;0;0;1.57618E+12;4130;4130;4113;4123;0;0;28;;;;;;;0;0;0;10;-4;1587;0;0;1624;6;26;0;6.37;0;0;0;0;;;100;100;0;2;0;0;0;2;0;;;;;0;0;0
-29.447894;-53.28589;2.6;2.7;0;0.64;2.6;2.6;2.2;0.65;13901;44:05.8;44:05.8;12;0;0;16.495;-29.447898;-53.285895;0;0;0;-1.1;-0.3;158.7;0;1;0;84;100;-9484;3143;16495;3108.5;3;P-GPS;1;0;0;0;0;0;0;1.57618E+12;4130;4130;4113;4123;0;0;28;;;;;;;0;0;0;11;-3;1587;0;0;1624;6;26;0;6.38;0;0;0;0;;;100;100;0;2;0;0;0;2;0;;;;;0;0;0
-29.447894;-53.28589;2.6;2.7;0;0.64;2.6;2.6;2.2;0.65;13990;44:05.8;44:05.8;12;0;0;16.495;-29.447898;-53.285895;0;0;0;-1.2;-0.3;158.6;0;1;0;84;100;-9484;3143;16495;3108.5;3;P-GPS;1;0;0;0;0;0;0;1.57618E+12;4130;4130;4113;4123;0;0;28;;;;;;;0;0;0;12;-3;1586;0;0;1624;6;26;0;6.39;0;0;0;0;;;100;100;0;2;0;0;0;2;0;;;;;0;0;0
-29.447894;-53.28589;2.6;2.7;0;0.67;2.6;2.6;2.2;0.67;14099;44:06.0;44:06.0;12;0;0;16.495;-29.447898;-53.285895;0;0;0;-1.2;-0.3;158.6;0;1;0;84;100;-9484;3143;16495;3108.5;3;P-GPS;1;0;0;0;0;0;0;1.57618E+12;4130;4130;4113;4123;0;0;28;;;;;;;0;0;0;12;-3;1586;0;0;1624;6;26;0;6.72;0;0;0;0;;;100;100;0;2;0;0;0;2;0;;;;;0;0;0
-29.447894;-53.28589;2.6;2.7;0;0.68;2.6;2.6;2.2;0.68;14203;44:06.1;44:06.1;12;0;0;16.495;-29.447898;-53.285895;0;0;0;-1.2;-0.3;158.6;0;1;0;84;100;-9484;3143;16495;3108.5;3;P-GPS;1;0;0;0;0;0;0;1.57618E+12;4130;4130;4113;4123;0;0;28;;;;;;;0;0;0;12;-3;1586;0;0;1624;6;26;0;6.76;0;0;0;0;;;100;100;0;2;0;0;0;2;0;;;;;0;0;0
-29.447894;-53.28589;2.6;2.6;0;0.69;2.6;2.6;2.2;0.69;14299;44:06.2;44:06.2;11;0;0;16.495;-29.447898;-53.285895;0;0;0;-1.3;-0.3;158.6;0;1;0;84;100;-9484;3143;16495;3108.5;3;P-GPS;1;0;0;0;0;0;0;1.57618E+12;4130;4130;4113;4123;0;0;28;;;;;;;0;0;0;13;-3;1586;0;0;1624;6;26;0;6.92;0;0;0;0;;;100;100;0;2;0;0;0;2;0;;;;;0;0;0
-29.447894;-53.28589;2.6;2.6;0;0.7;2.6;2.6;2.2;0.7;14402;44:06.3;44:06.3;11;0;0;16.495;-29.447898;-53.285895;0;0;0;-1.2;-0.2;158.6;0;1;0;84;100;-9484;3143;16495;3108.5;3;P-GPS;1;0;0;0;0;0;0;1.57618E+12;4130;4130;4113;4123;0;0;28;;;;;;;0;0;0;12;-2;1586;0;0;1624;6;26;0;6.97;0;0;0;0;;;100;100;0;2;0;0;0;2;0;;;;;0;0;0
-29.447894;-53.28589;2.6;2.6;0;0.71;2.6;2.6;2.2;0.71;14499;44:06.4;44:06.4;10;0;0;16.495;-29.447898;-53.285895;0;0;0;-1.2;-0.1;158.7;0;1;0;84;100;-9484;3143;16495;3108.5;3;P-GPS;1;0;0;0;0;0;0;1.57618E+12;4130;4130;4113;4123;0;0;28;;;;;;;0;0;0;12;-1;1587;0;0;1624;6;26;0;7.1;0;0;0;0;;;100;100;0;2;0;0;0;2;0;;;;;0;0;0
-29.447894;-53.28589;2.6;2.6;0;0.72;2.6;2.6;2.2;0.72;14598;44:06.5;44:06.5;10;0;0;16.495;-29.447898;-53.285895;0;0;0;-1.1;0;158.7;0;1;0;84;100;-9484;3143;16495;3108.5;3;P-GPS;1;0;0;0;0;0;0;1.57618E+12;4130;4130;4113;4123;0;0;28;;;;;;;0;0;0;11;0;1587;0;0;1624;6;26;0;7.17;0;0;0;0;;;100;100;0;2;0;0;0;2;0;;;;;0;0;0
-29.447894;-53.28589;2.6;2.6;0;0.72;2.6;2.6;2.2;0.72;14699;44:06.6;44:06.6;11;0;0;16.495;-29.447898;-53.285895;0;0;0;-1.1;0;158.7;0;1;0;84;100;-9484;3143;16495;3108.5;3;P-GPS;1;0;0;0;0;0;0;1.57618E+12;4130;4130;4113;4123;0;0;28;;;;;;;0;0;0;11;0;1587;0;0;1624;6;26;0;7.18;0;0;0;0;;;100;100;0;2;0;0;0;2;0;;;;;0;0;0
-29.447894;-53.28589;2.6;2.6;0;0.72;2.6;2.6;2.2;0.72;14798;44:06.7;44:06.7;11;0;0;16.506;-29.447898;-53.285895;0;0;0;-1;0;158.7;0;1;0;84;100;-8327;3138;16506;3109.5;3;P-GPS;1;0;0;0;0;0;0;1.57618E+12;4130;4130;4113;4123;0;0;28;;;;;;;0;0;0;10;0;1587;0;0;1624;6;26;0;7.24;0;0;0;0;;;100;100;0;2;0;0;0;2;0;;;;;0;0;0
-29.447893;-53.28589;2.6;2.6;0;0.73;2.6;2.6;2.2;0.73;14900;44:06.8;44:06.8;11;0;0;16.506;-29.447898;-53.285895;0;0;0;-1.1;0;158.7;0;1;0;84;100;-8327;3138;16506;3109.5;3;P-GPS;1;0;0;0;0;0;0;1.57618E+12;4130;4130;4113;4123;0;0;28;;;;;;;0;0;0;11;0;1587;0;0;1624;6;26;0;7.33;0;0;0;0;;;100;100;0;2;0;0;0;2;0;;;;;0;0;0
-29.447893;-53.285889;2.6;2.7;0;0.74;2.6;2.6;2.2;0.74;15002;44:06.9;44:06.9;11;0;0;16.506;-29.447898;-53.285895;0;0;0;-1;-0.1;158.8;0;1;0;84;100;-8327;3138;16506;3109.5;3;P-GPS;1;0;0;0;0;0;0;1.57618E+12;4130;4130;4113;4123;0;0;28;;;;;;;0;0;0;10;-1;1588;0;0;1624;6;26;0;7.4;0;0;0;0;;;100;100;0;2;0;0;0;2;0;;;;;0;0;0
-29.447893;-53.285889;2.6;2.7;0;0.74;2.6;2.6;2.2;0.74;15100;44:07.0;44:07.0;12;0;0;16.506;-29.447898;-53.285895;0;0;0;-1;-0.1;158.8;0;1;0;84;100;-8327;3138;16506;3109.5;3;P-GPS;1;0;0;0;0;0;0;1.57618E+12;4130;4130;4113;4123;0;0;28;;;;;;;0;0;0;10;-1;1588;0;0;1624;6;26;0;7.38;0;0;0;0;;;100;100;0;2;0;0;0;2;0;;;;;0;0;0
-29.447893;-53.285889;2.6;2.7;0;0.74;2.6;2.6;2.2;0.74;15203;44:07.1;44:07.1;12;0;0;16.506;-29.447898;-53.285895;0;0;0;-1.1;-0.1;158.8;0;1;0;84;100;-8327;3138;16506;3109.5;3;P-GPS;1;0;0;0;0;0;0;1.57618E+12;4130;4130;4113;4123;0;0;28;;;;;;;0;0;0;11;-1;1588;0;0;1624;6;26;0;7.45;0;0;0;0;;;100;100;0;2;0;0;0;2;0;;;;;0;0;0
-29.447893;-53.28589;2.6;2.7;0;0.73;2.6;2.6;2.2;0.74;15295;44:07.1;44:07.1;12;0;0;16.506;-29.447898;-53.285895;0;0;0;-1.1;-0.2;158.8;0;1;0;84;100;-8327;3138;16506;3109.5;3;P-GPS;1;0;0;0;0;0;0;1.57618E+12;4130;4130;4113;4123;0;0;28;;;;;;;0;0;0;11;-2;1588;0;0;1624;6;26;0;7.34;0;0;0;0;;;100;100;0;2;0;0;0;2;0;;;;;0;0;0
-29.447893;-53.285889;2.6;2.6;0;0.74;2.6;2.6;2.2;0.74;15402;44:07.3;44:07.3;12;0;0;16.506;-29.447898;-53.285895;0;0;0;-1.1;-0.1;158.8;0;1;0;84;100;-8327;3138;16506;3109.5;3;P-GPS;1;0;0;0;0;0;0;1.57618E+12;4130;4130;4113;4123;0;0;28;;;;;;;0;0;0;11;-1;1588;0;0;1624;6;26;0;7.39;0;0;0;0;;;100;100;0;2;0;0;0;2;0;;;;;0;0;0
-29.447893;-53.28589;2.6;2.7;0;0.73;2.6;2.6;2.2;0.74;15492;44:07.3;44:07.3;13;0;0;16.506;-29.447898;-53.285895;0;0;0;-1.2;0;158.8;0;1;0;84;100;-8327;3138;16506;3109.5;3;P-GPS;1;0;0;0;0;0;0;1.57618E+12;4130;4130;4113;4123;0;0;28;;;;;;;0;0;0;12;0;1588;0;0;1624;6;26;0;7.31;0;0;0;0;;;100;100;0;2;0;0;0;2;0;;;;;0;0;0
-29.447893;-53.28589;2.6;2.7;0;0.73;2.6;2.6;2.2;0.74;15582;44:07.4;44:07.4;13;0;0;16.506;-29.447898;-53.285895;0;0;0;-1.2;0;158.8;0;1;0;84;100;-8327;3138;16506;3109.5;3;P-GPS;1;0;0;0;0;0;0;1.57618E+12;4130;4130;4113;4123;0;0;28;;;;;;;0;0;0;12;0;1588;0;0;1624;6;26;0;7.31;0;0;0;0;;;100;100;0;2;0;0;0;2;0;;;;;0;0;0
-29.447893;-53.28589;2.6;2.7;0;0.73;2.6;2.6;2.2;0.74;15699;44:07.6;44:07.6;13;0;0;16.483;-29.447898;-53.285895;0;0;0;-1.3;0;158.8;0;1;0;84;100;-8327;3138;16483;3109.5;3;P-GPS;1;0;0;0;0;0;0;1.57618E+12;4130;4130;4113;4123;0;0;28;;;;;;;0;0;0;13;0;1588;0;0;1624;6;26;0;7.27;0;0;0;0;;;100;100;0;2;0;0;0;2;0;;;;;0;0;0
-29.447893;-53.28589;2.6;2.7;0;0.73;2.6;2.6;2.2;0.74;15800;44:07.7;44:07.7;13;0;0;16.483;-29.447898;-53.285895;0;0;0;-1.3;0;158.7;0;1;0;84;100;-8327;3138;16483;3109.5;3;P-GPS;1;0;0;0;0;0;0;1.57618E+12;4130;4130;4113;4123;0;0;28;;;;;;;0;0;0;13;0;1587;0;0;1624;6;26;0;7.28;0;0;0;0;;;100;100;0;2;0;0;0;2;0;;;;;0;0;0
-29.447893;-53.28589;2.6;2.6;0;0.74;2.6;2.6;2.2;0.74;15900;44:07.8;44:07.8;13;0;0;16.483;-29.447898;-53.285895;0;0;0;-1.3;-0.1;158.7;0;1;0;84;100;-8327;3138;16483;3109.5;3;P-GPS;1;0;0;0;0;0;0;1.57618E+12;4130;4130;4113;4123;0;0;28;;;;;;;0;0;0;13;-1;1587;0;0;1624;6;26;0;7.42;0;0;0;0;;;100;100;0;2;0;0;0;2;0;;;;;0;0;0
-29.447893;-53.28589;2.6;2.7;0;0.74;2.6;2.6;2.2;0.74;15998;44:07.9;44:07.9;13;0;0;16.483;-29.447898;-53.285895;0;0;0;-1.2;-0.2;158.6;0;1;0;84;100;-8327;3138;16483;3109.5;3;P-GPS;1;0;0;0;0;0;0;1.57618E+12;4130;4130;4113;4123;0;0;28;;;;;;;0;0;0;12;-2;1586;0;0;1624;6;26;0;7.44;0;0;0;0;;;100;100;0;2;0;0;0;2;0;;;;;0;0;0
-29.447893;-53.28589;2.6;2.7;0;0.75;2.6;2.6;2.2;0.75;16099;44:08.0;44:08.0;13;0;0;16.483;-29.447898;-53.285895;0;0;0;-1.2;-0.2;158.5;0;1;0;84;100;-8327;3138;16483;3109.5;3;P-GPS;1;0;0;0;0;0;0;1.57618E+12;4130;4130;4113;4123;0;0;28;;;;;;;0;0;0;12;-2;1585;0;0;1624;6;26;0;7.48;0;0;0;0;;;100;100;0;2;0;0;0;2;0;;;;;0;0;0
-29.447893;-53.28589;2.6;2.7;0;0.75;2.6;2.6;2.2;0.75;16199;44:08.1;44:08.1;13;0;0;16.483;-29.447898;-53.285895;0;0;0;-1.2;-0.3;158.5;0;1;0;84;100;-8327;3138;16483;3109.5;3;P-GPS;1;0;0;0;0;0;0;1.57618E+12;4130;4130;4113;4123;0;0;28;;;;;;;0;0;0;12;-3;1585;0;0;1624;6;26;0;7.5;0;0;0;0;;;100;100;0;2;0;0;0;2;0;;;;;0;0;0
-29.447893;-53.28589;2.6;2.7;0;0.76;2.6;2.6;2.2;0.76;16306;44:08.2;44:08.2;13;0;0;16.483;-29.447898;-53.285895;0;0;0;-1.1;-0.3;158.4;0;1;0;84;100;-8327;3138;16483;3109.5;3;P-GPS;1;0;0;0;0;0;0;1.57618E+12;4130;4130;4113;4123;0;0;28;;;;;;;0;0;0;11;-3;1584;0;0;1624;6;26;0;7.56;0;0;0;0;;;100;100;0;2;0;0;0;2;0;;;;;0;0;0
-29.447893;-53.28589;2.6;2.7;0;0.76;2.6;2.6;2.2;0.76;16401;44:08.3;44:08.3;13;0;0;16.483;-29.447898;-53.285895;0;0;0;-1;-0.2;158.4;0;1;0;84;100;-8327;3138;16483;3109.5;3;P-GPS;1;0;0;0;0;0;0;1.57618E+12;4130;4130;4113;4123;0;0;28;;;;;;;0;0;0;10;-2;1584;0;0;1624;6;26;0;7.59;0;0;0;0;;;100;100;0;2;0;0;0;2;0;;;;;0;0;0
-29.447893;-53.28589;2.6;2.7;0;0.77;2.6;2.6;2.2;0.77;16501;44:08.4;44:08.4;13;0;0;16.483;-29.447898;-53.285895;0;0;0;-1.1;-0.1;158.3;0;1;0;84;100;-8327;3138;16483;3109.5;3;P-GPS;1;0;0;0;0;0;0;1.57618E+12;4130;4130;4113;4123;0;0;28;;;;;;;0;0;0;11;-1;1583;0;0;1624;6;26;0;7.67;0;0;0;0;;;100;100;0;2;0;0;0;2;0;;;;;0;0;0
-29.447893;-53.28589;2.6;2.7;0;0.77;2.6;2.6;2.2;0.77;16601;44:08.5;44:08.5;13;0;0;16.483;-29.447898;-53.285895;0;0;0;-1;0;158.3;0;1;0;84;100;-8327;3138;16483;3109.5;3;P-GPS;1;0;0;0;0;0;0;1.57618E+12;4130;4130;4113;4123;0;0;28;;;;;;;0;0;0;10;0;1583;0;0;1624;6;26;0;7.71;0;0;0;0;;;100;100;0;2;0;0;0;2;0;;;;;0;0;0
-29.447893;-53.285889;2.6;2.7;0;0.79;2.6;2.6;2.2;0.79;16701;44:08.6;44:08.6;13;0;0;16.483;-29.447898;-53.285895;0;0;0;-1;0;158.3;0;1;0;84;100;-8244;3136;16483;3109.5;3;P-GPS;1;0;0;0;0;0;0;1.57618E+12;4130;4130;4113;4123;0;0;28;;;;;;;0;0;0;10;0;1583;0;0;1624;6;26;0;7.88;0;0;0;0;;;100;100;0;2;0;0;0;2;0;;;;;0;0;0
-29.447893;-53.285889;2.6;2.7;0;0.79;2.6;2.6;2.2;0.79;16799;44:08.7;44:08.7;13;0;0;16.483;-29.447898;-53.285895;0;0;0;-1.1;0.1;158.3;0;1;0;84;100;-8244;3136;16483;3109.5;3;P-GPS;1;0;0;0;0;0;0;1.57618E+12;4130;4130;4113;4123;0;0;28;;;;;;;0;0;0;11;1;1583;0;0;1624;6;26;0;7.93;0;0;0;0;;;100;100;0;2;0;0;0;2;0;;;;;0;0;0
-29.447893;-53.285889;2.6;2.7;0;0.78;2.6;2.6;2.2;0.79;16923;44:08.8;44:08.8;13;0;0;16.483;-29.447898;-53.285895;0;0;0;-1.2;0.1;158.3;0;1;0;84;100;-8244;3136;16483;3109.5;3;P-GPS;1;0;0;0;0;0;0;1.57618E+12;4130;4130;4113;4123;0;0;28;;;;;;;0;0;0;12;1;1583;0;0;1624;6;26;0;7.84;0;0;0;0;;;100;100;0;2;0;0;0;2;0;;;;;0;0;0
-29.447893;-53.285889;2.6;2.7;0;0.79;2.6;2.6;2.2;0.79;17103;44:09.0;44:09.0;14;0;0;16.483;-29.447898;-53.285895;0;0;0;-1.1;0.3;158.4;0;1;0;84;100;-8244;3136;16483;3109.5;3;P-GPS;1;0;0;0;0;0;0;1.57618E+12;4130;4130;4113;4123;0;0;28;;;;;;;0;0;0;11;3;1584;0;0;1624;6;26;0;7.92;0;0;0;0;;;100;100;0;2;0;0;0;2;0;;;;;0;0;0
-29.447893;-53.285889;2.6;2.7;0;0.8;2.6;2.6;2.2;0.8;17200;44:09.1;44:09.1;14;0;0;16.483;-29.447898;-53.285895;0;0;0;-1;0.4;158.4;0;1;0;84;100;-8244;3136;16483;3109.5;3;P-GPS;1;0;0;0;0;0;0;1.57618E+12;4130;4130;4113;4123;0;0;28;;;;;;;0;0;0;10;4;1584;0;0;1624;6;26;0;7.96;0;0;0;0;;;100;100;0;2;0;0;0;2;0;;;;;0;0;0
-29.447893;-53.285889;2.6;2.7;0;0.79;2.6;2.6;2.2;0.8;17299;44:09.2;44:09.2;14;0;0;16.483;-29.447898;-53.285895;0;0;0;-1;0.5;158.5;0;1;0;84;100;-8244;3136;16483;3109.5;3;P-GPS;1;0;0;0;0;0;0;1.57618E+12;4130;4130;4113;4123;0;0;28;;;;;;;0;0;0;10;5;1585;0;0;1624;6;26;0;7.88;0;0;0;0;;;100;100;0;2;0;0;0;2;0;;;;;0;0;0
-29.447893;-53.285889;2.6;2.7;0;0.79;2.6;2.6;2.2;0.8;17399;44:09.3;44:09.3;14;0;0;16.483;-29.447898;-53.285895;0;0;0;-0.9;0.6;158.6;0;1;0;84;100;-8244;3136;16483;3109.5;3;P-GPS;1;0;0;0;0;0;0;1.57618E+12;4130;4130;4113;4123;0;0;28;;;;;;;0;0;0;9;6;1586;0;0;1624;6;26;0;7.91;0;0;0;0;;;100;100;0;2;0;0;0;2;0;;;;;0;0;0
-29.447893;-53.285889;2.6;2.7;0;0.78;2.6;2.6;2.2;0.8;17500;44:09.4;44:09.4;14;0;0;16.483;-29.447898;-53.285895;0;0;0;-0.9;0.8;158.7;0;1;0;84;100;-8244;3136;16483;3109.5;3;P-GPS;1;0;0;0;0;0;0;1.57618E+12;4130;4130;4113;4123;0;0;28;;;;;;;0;0;0;9;8;1587;0;0;1624;6;26;0;7.84;0;0;0;0;;;100;100;0;2;0;0;0;2;0;;;;;0;0;0
-29.447893;-53.285889;2.6;2.7;0;0.79;2.6;2.6;2.2;0.8;17603;44:09.5;44:09.5;14;0;0;16.483;-29.447898;-53.285895;0;0;0;-0.9;0.9;158.7;0;1;0;84;100;-8244;3136;16483;3109.5;3;P-GPS;1;0;0;0;0;0;0;1.57618E+12;4130;4130;4113;4123;0;0;28;;;;;;;0;0;0;9;9;1587;0;0;1624;6;26;0;7.85;0;0;0;0;;;100;100;0;2;0;0;0;2;0;;;;;0;0;0
-29.447893;-53.285889;2.6;2.7;0;0.77;2.6;2.6;2.2;0.8;17699;44:09.6;44:09.6;14;0;0;16.483;-29.447898;-53.285895;0;0;0;-0.9;0.9;158.8;0;1;0;84;100;-8244;3136;16483;3109.5;3;P-GPS;1;0;0;0;0;0;0;1.57618E+12;4130;4130;4113;4123;0;0;28;;;;;;;0;0;0;9;9;1588;0;0;1624;6;26;0;7.68;0;0;0;0;;;100;100;0;2;0;0;0;2;0;;;;;0;0;0
-29.447893;-53.285889;2.6;2.7;0;0.77;2.6;2.6;2.2;0.8;17799;44:09.7;44:09.7;14;0;0;16.482;-29.447898;-53.285895;0;0;0;-0.8;0.9;158.8;0;1;0;84;100;-8280;3132;16482;3109.5;3;P-GPS;1;0;0;0;0;0;0;1.57618E+12;4130;4130;4113;4123;0;0;28;;;;;;;0;0;0;8;9;1588;0;0;1624;6;26;0;7.66;0;0;0;0;;;100;100;0;2;0;0;0;2;0;;;;;0;0;0
-29.447893;-53.28589;2.6;2.7;0;0.73;2.6;2.6;2.2;0.8;17898;44:09.8;44:09.8;14;0;0;16.482;-29.447898;-53.285895;0;0;0;-0.8;0.8;158.8;0;1;0;84;100;-8280;3132;16482;3109.5;3;P-GPS;1;0;0;0;0;0;0;1.57618E+12;4130;4130;4113;4123;0;0;28;;;;;;;0;0;0;8;8;1588;0;0;1624;6;26;0;7.32;0;0;0;0;;;100;100;0;2;0;0;0;2;0;;;;;0;0;0
-29.447893;-53.28589;2.6;2.7;0;0.73;2.6;2.6;2.2;0.8;18005;44:09.9;44:09.9;14;0;0;16.482;-29.447898;-53.285895;0;0;0;-0.8;0.7;158.9;0;1;0;84;100;-8280;3132;16482;3109.5;3;P-GPS;1;0;0;0;0;400;0;1.57618E+12;4130;4130;4113;4123;0;0;28;;;;;;;0;0;0;8;7;1589;0;0;1624;6;26;0;7.26;0;0;0;0;;;100;100;0;2;0;0;0;2;0;;;;;0;0;0
-29.447893;-53.28589;2.6;2.7;0;0.7;2.6;2.6;2.2;0.8;18107;44:10.0;44:10.0;14;0;0;16.482;-29.447898;-53.285895;0;0;0;-0.9;0.7;160.4;0;1;0;84;100;-8280;3132;16482;3109.5;3;P-GPS;1;0;0;0;0;292;0;1.57618E+12;4130;4130;4113;4123;0;0;28;;;;;;;0;0;0;9;7;1604;0;0;1630;6;26;0;6.99;0;0;0;0;;;100;100;0;2;0;0;0;2;0;;;;;0;0;0
-29.447894;-53.28589;2.6;2.7;0;0.69;2.6;2.6;2.2;0.8;18199;44:10.1;44:10.1;14;0;0;16.482;-29.447898;-53.285895;0;0;0;-0.9;0.8;161;0;1;0;84;100;-8280;3132;16482;3109.5;3;P-GPS;1;0;0;0;0;0;0;1.57618E+12;4130;4130;4113;4123;0;0;28;;;;;;;0;0;0;9;8;1610;0;0;1647;6;26;0;6.89;0;0;0;0;;;100;100;0;2;0;0;0;2;0;;;;;0;0;0
-29.447894;-53.28589;2.6;2.7;0;0.67;2.6;2.6;2.2;0.8;18299;44:10.2;44:10.2;14;0;0;16.482;-29.447898;-53.285895;0;0;0;-0.8;0.7;161.2;0;1;0;84;100;-8280;3132;16482;3109.5;3;P-GPS;1;0;0;0;0;0;0;1.57618E+12;4130;4130;4113;4123;0;0;28;;;;;;;0;0;0;8;7;1612;0;0;1648;6;26;0;6.69;0;0;0;0;;;100;100;0;2;0;0;0;2;0;;;;;0;0;0
-29.447894;-53.28589;2.6;2.7;0;0.66;2.6;2.6;2.2;0.8;18400;44:10.3;44:10.3;14;0;0;16.482;-29.447898;-53.285895;0;0;0;-0.8;0.4;161.3;0;1;0;84;100;-8280;3132;16482;3109.5;3;P-GPS;1;0;0;0;0;0;0;1.57618E+12;4130;4130;4113;4123;0;0;28;;;;;;;0;0;0;8;4;1613;0;0;1648;6;26;0;6.56;0;0;0;0;;;100;100;0;2;0;0;0;2;0;;;;;0;0;0
-29.447894;-53.28589;2.6;2.7;0;0.65;2.6;2.6;2.2;0.8;18498;44:10.4;44:10.4;13;0;0;16.482;-29.447898;-53.285895;0;0;0;-0.9;0.1;161.3;0;1;0;84;100;-8280;3132;16482;3109.5;3;P-GPS;1;0;0;0;0;0;0;1.57618E+12;4130;4130;4113;4123;0;0;28;;;;;;;0;0;0;9;1;1613;0;0;1648;6;26;0;6.54;0;0;0;0;;;100;100;0;2;0;0;0;2;0;;;;;0;0;0
-29.447894;-53.28589;2.6;2.7;0;0.64;2.6;2.6;2.2;0.8;18592;44:10.4;44:10.4;13;0;0;16.482;-29.447898;-53.285895;0;0;0;-1.1;0.1;161.4;0;1;0;84;100;-8280;3132;16482;3109.5;3;P-GPS;1;0;0;0;0;0;0;1.57618E+12;4130;4130;4113;4123;0;0;28;;;;;;;0;0;0;11;1;1614;0;0;1648;6;26;0;6.4;0;0;0;0;;;100;100;0;2;0;0;0;2;0;;;;;0;0;0
